agency_name,agency_type,sworn_active_persnl,hq_addr1,hq_addr2,hq_city,hq_state,hq_zip,addr1,addr2,po_box,city,state,county,zip,hq_ph,hq_fax,org_type,website,fips,Full_Address,Latitude,Longitude
San Antonio Park Rangers,Special jurisdiction,112, , , , , ,600 Hemisfair Park  No. 337, , ,San Antonio,TX,Bexar,78205, , , , ,48029,"600 Hemisfair Park  No. 337, San Antonio, TX 78205",29.41902109999999,-98.48563449999999
College Station Police Department,Local police department,112, , , , , ,2611 Texas Avenue, , ,College Station,TX,Brazos,77842, , , , ,48041,"2611 Texas Avenue, College Station, TX 77842",30.6041055,-96.3028112
Kingsport Police Department,Local police department,111, , , , , ,200 Shelby St., , ,Kingsport,TN,Sullivan,37660, , , , ,47163,"200 Shelby St., Kingsport, TN 37660",36.5477075,-82.56176649999999
Dorchester County Sheriff's Office,Sheriff's office,111, , , , , ,100 Sears St, , ,Saint George,SC,Dorchester,29477, , , , ,45035,"100 Sears St, Saint George, SC 29477",33.1851668,-80.5781933
Edinburg Police Department,Local police department,110, , , , , ,100 E. Freddy Gonzalez Drive,1702 S. CLOSNER BLVD, ,Edinburg,TX,Hidalgo,78539, , , , ,48215,"100 E. Freddy Gonzalez Drive, Edinburg, TX 78539",26.2862029,-98.16465749999999
Calvert County Sheriff's Office,Sheriff's office,110, , , , , ,30 Church St, , ,Prince Frederick,MD,Calvert,20678, , , , ,24009,"30 Church St, Prince Frederick, MD 20678",38.5385752,-76.5876715
North Richland Hills Police Department,Local police department,109, , , , , ,7301 Northeast Loop 820, , ,North Richland Hills,TX,Tarrant,76180, , , , ,48439,"7301 Northeast Loop 820, North Richland Hills, TX 76180",32.8383749,-97.2253897
Florence Police Department,Local police department,109, , , , , ,8100 Ewing Blvd., , ,Florence,SC,Florence,29501, , , , ,45041,"8100 Ewing Blvd., Florence, SC 29501",34.1954331,-79.7625625
North Carolina Alcohol Law Enforcement,Special jurisdiction,108, , , , , ,4704 Mail Service Ctr., , ,Raleigh,NC,Wake,27699, , , , ,37183,"4704 Mail Service Ctr., Raleigh, NC 27699",35.67,-78.66
Ocean City Police Department,Local police department,107, , , , , ,6501 Coastal Highway, , ,Ocean City,MD,Worcester,21842, , , , ,24047,"6501 Coastal Highway, Ocean City, MD 21842",38.3885874,-75.0688914
Sumter Police Department,Local police department,107, , , , , ,107 E. Hampton Ave., , ,Sumter,SC,Sumter,29150, , , , ,45085,"107 E. Hampton Ave., Sumter, SC 29150",33.9219028,-80.3392963
Cameron County Sheriff's Office,Sheriff's office,107, , , , , ,20 E 5Th St,Courthouse, ,Olmito,TX,Cameron,78575, , , , ,48061,"20 E 5Th St, Olmito, TX 78575",26.0217447,-97.5341533
Harnett County Sheriff's Office,Sheriff's office,106, , , , , ,Po Box 399, , ,Lillington,NC,Harnett,27546, , , , ,37085,"Po Box 399, Lillington, NC 27546",35.39932700000001,-78.8158528
Allen Police Department,Local police department,106, , , , , ,P. O. Box 402, , ,Allen,TX,Collin,75013, , , , ,48085,"P. O. Box 402, Allen, TX 75013",33.1128019,-96.6958939
Victoria Police Department,Local police department,106, , , , , ,P.O. Box V, , ,Victoria,TX,Victoria,77901, , , , ,48469,"P.O. Box V, Victoria, TX 77901",28.80663839999999,-96.99609249999999
Vermilion Parish Sheriff's Office,Sheriff's office,106, , , , , ,Po Box 307,101 South State St, ,Abbeville,LA,Vermilion,70511, , , , ,22113,"Po Box 307, Abbeville, LA 70511",29.9815401,-92.1217882
Jackson Parish Sheriff's Office,Sheriff's office,105, , , , , ,500 E Court St Rm 100, , ,Jonesboro,LA,Jackson,71251, , , , ,22049,"500 E Court St Rm 100, Jonesboro, LA 71251",32.2403116,-92.71601969999999
Acadia Parish Sheriff's Office,Sheriff's office,105, , , , , ,1037 Capitol Ave,PO Box 289, ,Crowley,LA,Acadia,70527, , , , ,22001,"1037 Capitol Ave, Crowley, LA 70527",30.2070536,-92.39830669999999
Hagerstown Police Department,Local police department,105, , , , , ,50 N. Burhans Blvd., , ,Hagerstown,MD,Washington,21740, , , , ,24043,"50 N. Burhans Blvd., Hagerstown, MD 21740",39.645748,-77.7261925
Burlington Police Department,Local police department,105, , , , , ,"311 Cedar Street, Suite B", , ,Burlington,NC,Alamance,27216, , , , ,37001,"311 Cedar Street, Suite B, Burlington, NC 27216",36.0959767,-79.43716049999999
Bartlett Police Department,Local police department,105, , , , , ,56 Town Hall Road, , ,Bartlett,TN,Shelby,38133, , , , ,47157,"56 Town Hall Road, Bartlett, TN 38133",35.2045328,-89.8739753
Onslow County Sheriff's Office,Sheriff's office,104, , , , , ,701 Mill Ave, , ,Jacksonville,NC,Onslow,28540, , , , ,37133,"701 Mill Ave, Jacksonville, NC 28540",34.751505,-77.43166409999999
South Carolina State Transport Police,Special jurisdiction,103, , , , , ,10311 Wilson Blvd, , ,Blythewood,SC,Richland,29016, , , , ,45079,"10311 Wilson Blvd, Blythewood, SC 29016",34.1782945,-80.97378959999999
Oro Valley Police Department,Local police department,103, , , , , ,11000 North La Canada Drive, , ,Oro Valley,AZ,Pima,85737, , , , ,4019,"11000 North La Canada Drive, Oro Valley, AZ 85737",32.4077827,-110.9952471
Maryland National Capital Park Police - Prince George's County,Special jurisdiction,102, , , , , ,6700 Riverdale Road, , ,Riverdale,MD,Prince Georges,20737, , , , ,24033,"6700 Riverdale Road, Riverdale, MD 20737",38.9628012,-76.9024074
Goldsboro Police Department,Local police department,101, , , , , ,Po Drawer A, , ,Goldsboro,NC,Wayne,27533, , , , ,37191,"Po Drawer A, Goldsboro, NC 27533",35.38,-77.99
Avondale Police Department,Local police department,101, , , , , ,11485 W Civic Center Drive, , ,Avondale,AZ,Maricopa,85323, , , , ,4013,"11485 W Civic Center Drive, Avondale, AZ 85323",33.4430827,-112.3046247
Franklin Parish Sheriff's Office,Sheriff's office,100, , , , , ,6556 Main St, , ,Winnsboro,LA,Franklin,71295, , , , ,22041,"6556 Main St, Winnsboro, LA 71295",32.165727,-91.71371820000002
Pickens County Sheriff's Office,Sheriff's office,99, , , , , ,"2985 Camp Rd, Ste 100", , ,Pickens,SC,Pickens,29671, , , , ,45077,"2985 Camp Rd, Ste 100, Pickens, SC 29671",34.8834489,-82.7073573
Williamson County Sheriff's Office,Sheriff's office,99, , , , , ,200 W Jefferson St, , ,Franklin,TN,Williamson,37064, , , , ,47187,"200 W Jefferson St, Franklin, TN 37064",35.9250637,-86.8688899
Conroe Police Department,Local police department,99, , , , , ,700 Old Montgomery Road, , ,Conroe,TX,Montgomery,77301, , , , ,48339,"700 Old Montgomery Road, Conroe, TX 77301",30.3103502,-95.46258689999999
Collierville Police Department,Local police department,99, , , , , ,156 N. Rowlett, , ,Collierville,TN,Shelby,38017, , , , ,47157,"156 N. Rowlett, Collierville, TN 38017",35.0425779,-89.667147
Baltimore (City) Sheriff's Office,Sheriff's office,99, , , , , ,100 N Calvert St Ste 104, , ,Baltimore,MD,Baltimore City,21202, , , , ,24510,"100 N Calvert St Ste 104, Baltimore, MD 21202",39.290816,-76.61323399999999
Lincoln County Sheriff's Office,Sheriff's office,98, , , , , ,4151 Thornton Taylor Pkwy, , ,Lincolnton,NC,Lincoln,28093, , , , ,37109,"4151 Thornton Taylor Pkwy, Lincolnton, NC 28093",35.472453,-81.25341279999999
Johnston County Sheriff's Office,Sheriff's office,97, , , , , ,110 North Capital Ave, , ,Smithfield,NC,Johnston,27577, , , , ,37101,"110 North Capital Ave, Smithfield, NC 27577",35.5084935,-78.3394455
Pointe Coupee Parish Sheriff's Office,Sheriff's office,97, , , , , ,Po Box 248, , ,New Roads,LA,Pointe Coupee,70760, , , , ,22077,"Po Box 248, New Roads, LA 70760",30.6955107,-91.4341585
Pharr Police Department,Local police department,96, , , , , ,1900 S.Cage, , ,Pharr,TX,Hidalgo,78577, , , , ,48215,"1900 S.Cage, Pharr, TX 78577",26.1718971,-98.1886134
Comal County Sheriff's Office,Sheriff's office,96, , , , , ,3005 W San Antonio St, , ,New Braunfels,TX,Comal,78130, , , , ,48091,"3005 W San Antonio St, New Braunfels, TX 78130",29.68057319999999,-98.15118220000001
Goodyear Police Department,Local police department,96, , , , , ,1111 S Litchfield Road, , ,Goodyear,AZ,Maricopa,85338, , , , ,4013,"1111 S Litchfield Road, Goodyear, AZ 85338",33.4363428,-112.3579882
San Marcos Police Department,Local police department,95, , , , , ,2300 S. Ih-35, , ,San Marcos,TX,Hays,78666, , , , ,48209,"2300 S. Ih-35, San Marcos, TX 78666",29.8546291,-97.9574667
Victoria County Sheriff's Office,Sheriff's office,95, , , , , ,101 N Glass St, , ,Victoria,TX,Victoria,77901, , , , ,48469,"101 N Glass St, Victoria, TX 77901",28.8002906,-97.0086053
Gregg County Sheriff's Office,Sheriff's office,95, , , , , ,101 E Methvin St Ste 559, , ,Longview,TX,Gregg,75601, , , , ,48183,"101 E Methvin St Ste 559, Longview, TX 75601",32.4981111,-94.7393598
Washington County Sheriff's Office,Sheriff's office,94, , , , , ,399 Broadway, , ,Hagerstown,MD,Washington,21740, , , , ,24043,"399 Broadway, Hagerstown, MD 21740",39.6473856,-77.7132525
University of Texas Health Science Center Police,Special jurisdiction,94, , , , , ,1515 Holcombe, , ,Houston,TX,Harris,77030, , , , ,48201,"1515 Holcombe, Houston, TX 77030",29.707053,-95.3971227
Texarkana Police Department,Local police department,94, , , , , ,"100 N. State Line, Box 16", , ,Texarkana,TX,Bowie,75501, , , , ,48037,"100 N. State Line, Box 16, Texarkana, TX 75501",33.4208569,-94.0431833
League City Police Department,Local police department,93, , , , , ,500 West Walker, , ,League City,TX,Galveston,77573, , , , ,48167,"500 West Walker, League City, TX 77573",29.5023658,-95.0956956
Gretna Police Department,Local police department,93, , , , , ,105 South Shelton St., , ,Gretna,LA,Jefferson,70053, , , , ,22051,"105 South Shelton St., Gretna, LA 70053",29.9146493,-90.0539603
Lancaster County Sheriff's Office,Sheriff's office,93, , , , , ,8293 Mary Ball Rd, , ,Lancaster,SC,Lancaster,29720, , , , ,45057,"8293 Mary Ball Rd, Lancaster, SC 29720",34.7204257,-80.7709014
Gila River Tribal Police Department,Local police department,93, , , , , ,P.O. Box 2186, , ,Sacaton,AZ,Pinal,85247, , , , ,4021,"P.O. Box 2186, Sacaton, AZ 85247",33.0767225,-111.7392993
Potter County Sheriff's Office,Sheriff's office,93, , , , , ,201 S Exene St, , ,Amarillo,TX,Potter,79101, , , , ,48375,"201 S Exene St, Amarillo, TX 79101",35.2045402,-101.8407065
Mohave County Sheriff's Office,Sheriff's office,92, , , , , ,Po Box 1191,600 W Beale St, ,Kingman,AZ,Mohave,86402, , , , ,4015,"Po Box 1191, Kingman, AZ 86402",35.1959089,-114.0336385
Wilson County Sheriffs Office,Sheriff's office,92, , , , , ,100 Green St E,PO BOX 1666, ,Wilson,NC,Wilson,27894, , , , ,37195,"100 Green St E, Wilson, NC 27894",35.7260392,-77.90988209999999
Orangeburg County Sheriff's Office,Sheriff's office,92, , , , , ,1520 Ellis Ave, , ,Orangeburg,SC,Orangeburg,29118, , , , ,45075,"1520 Ellis Ave, Orangeburg, SC 29118",33.5116619,-80.8521655
Hendersonville Police Department,Local police department,92, , , , , ,Po Box 1670, , ,Hendersonville,TN,Sumner,37075, , , , ,47165,"Po Box 1670, Hendersonville, TN 37075",36.333532,-86.62167459999999
New Braunfels Police Department,Local police department,92, , , , , ,1488 S. Seguin Ave., , ,New Braunfels,TX,Comal,78130, , , , ,48091,"1488 S. Seguin Ave., New Braunfels, TX 78130",29.6878181,-98.1093669
Anderson Police Department,Local police department,91, , , , , ,401 South Main Street, , ,Anderson,SC,Anderson,29624, , , , ,45007,"401 South Main Street, Anderson, SC 29624",34.5009613,-82.6494803
Lake Havasu City Police Department,Local police department,91, , , , , ,2360 Mcculloch Boulevard North, , ,Lake Havasu City,AZ,Mohave,86403, , , , ,4015,"2360 Mcculloch Boulevard North, Lake Havasu City, AZ 86403",34.4781035,-114.3180717
Austin Airport Police,Special jurisdiction,91, , , , , ,3600 Presidential Blvd,Suite 508, ,Austin,TX,Travis,78719, , , , ,48453,"3600 Presidential Blvd, Austin, TX 78719",30.2117424,-97.6687353
Brazos County Sheriff's Office,Sheriff's office,90, , , , , ,1700 Highway 21 West, , ,Bryan,TX,Brazos,77803, , , , ,48041,"1700 Highway 21 West, Bryan, TX 77803",30.6763253,-96.39304680000001
St. Landry Parish Sheriff's Office,Sheriff's office,90, , , , , ,Po Box 1029, , ,Opelousas,LA,St. Landry,70571, , , , ,22097,"Po Box 1029, Opelousas, LA 70571",30.535195,-92.072237
Grapevine Police Department,Local police department,90, , , , , ,307 W. Dallas Rd., , ,Grapevine,TX,Tarrant,76051, , , , ,48439,"307 W. Dallas Rd., Grapevine, TX 76051",32.93220670000001,-97.080393
Rockingham County Sheriff's Office,Sheriff's office,90, , , , , ,Po Box 128, , ,Wentworth,NC,Rockingham,27375, , , , ,37157,"Po Box 128, Wentworth, NC 27375",36.39935,-79.76017999999999
New Bern Police Department,Local police department,90, , , , , ,Po Box 1129, , ,New Bern,NC,Craven,28563, , , , ,37049,"Po Box 1129, New Bern, NC 28563",35.1,-77.1
University of Maryland - College Park Police,Special jurisdiction,90, , , , , ,Dept Of Public Safety Headquarters,Building 003, ,College Park,MD,Prince Georges,20742, , , , ,24033,"Dept Of Public Safety Headquarters, College Park, MD 20742",38.9896967,-76.93776
Ector County Sheriff's Office,Sheriff's office,89, , , , , ,Po Box 2066, , ,Odessa,TX,Ector,79760, , , , ,48135,"Po Box 2066, Odessa, TX 79760",31.8463268,-102.3665236
Cleveland Police Department,Local police department,89, , , , , ,209 W Main Street, , ,Cleveland,TN,Bradley,37311, , , , ,47011,"209 W Main Street, Cleveland, TN 37311",35.0981107,-84.9297206
Bell County Sheriff's Office,Sheriff's office,88, , , , , ,Po Box 448,County Courthouse, ,Belton,TX,Bell,76513, , , , ,48027,"Po Box 448, Belton, TX 76513",31.0560132,-97.46445299999999
Johnson County Sheriff's Office,Sheriff's office,88, , , , , ,230 DONOVAN-HARRISON RD, , ,Cleburne,TX,Johnson,76031, , , , ,48251,"230 DONOVAN-HARRISON RD, Cleburne, TX 76031",32.3476438,-97.38668369999999
Salisbury Police Department,Local police department,88, , , , , ,"27 Main Street, Town Hall",Resident Troopers Office, ,Salisbury,MD,Wicomico,21801, , , , ,24045,"27 Main Street, Town Hall, Salisbury, MD 21801",38.3656193,-75.6006869
Smith County Sheriff's Office,Sheriff's office,88, , , , , ,217 S Jefferson St, , ,Tyler,TX,Smith,75710, , , , ,48423,"217 S Jefferson St, Tyler, TX 75710",32.3512601,-95.30106239999999
Dallas I.S.D. Police Dept.,Special jurisdiction,88, , , , , ,1402 Seegar St., , ,Dallas,TX,Dallas,75215, , , , ,48113,"1402 Seegar St., Dallas, TX 75215",32.7674447,-96.7878278
Morristown Police Department,Local police department,87, , , , , ,P.O. Box 1283, , ,Morristown,TN,Hamblen,37816, , , , ,47063,"P.O. Box 1283, Morristown, TN 37816",36.21,-83.3
Germantown Police Department,Local police department,87, , , , , ,N112 W16877 Mequon Road,P.O. Box 96, ,Germantown,TN,Shelby,38138, , , , ,47157,"N112 W16877 Mequon Road, Germantown, TN 38138",35.0867577,-89.8100858
Ellis County Sheriff's Office,Sheriff's office,87, , , , , ,300 S Jackson St, , ,Waxahachie,TX,Ellis,75165, , , , ,48139,"300 S Jackson St, Waxahachie, TX 75165",32.3838002,-96.8479983
Salisbury Police Department,Local police department,86, , , , , ,"27 Main Street, Town Hall",Resident Troopers Office, ,Salisbury,NC,Rowan,28145, , , , ,37159,"27 Main Street, Town Hall, Salisbury, NC 28145",35.6626653,-80.4647588
Burke County Sheriff's Office,Sheriff's office,86, , , , , ,Po Box 702,225 Ga Hwy 24 S, ,Morganton,NC,Burke,28655, , , , ,37023,"Po Box 702, Morganton, NC 28655",35.7454071,-81.6848188
"South Carolina Parks, Recreation & Tourism",Special jurisdiction,86, , , , , ,1205 Pendleton Street, , ,Columbia,SC,Richland,29201, , , , ,45079,"1205 Pendleton Street, Columbia, SC 29201",33.9990275,-81.03169729999999
Washington County Sheriff's Office,Sheriff's office,86, , , , , ,399 Broadway, , ,Johnson City,TN,Washington,37605, , , , ,47179,"399 Broadway, Johnson City, TN 37605",36.3325278,-82.34116
Texas City Police Department,Local police department,85, , , , , ,1004 9Th Ave North, , ,Texas City,TX,Galveston,77590, , , , ,48167,"1004 9Th Ave North, Texas City, TX 77590",29.394651,-94.9088931
Wayne County Sheriff's Office,Sheriff's office,85, , , , , ,510 N Pearl St, , ,Goldsboro,NC,Wayne,27533, , , , ,37191,"510 N Pearl St, Goldsboro, NC 27533",35.4660001,-78.1505279
Flower Mound Police Department,Local police department,85, , , , , ,4150 Kirkpatrick, , ,Flower Mound,TX,Denton,75028, , , , ,48121,"4150 Kirkpatrick, Flower Mound, TX 75028",33.041308,-97.043195
Baltimore County Sheriff's Office,Sheriff's office,84, , , , , ,401 Bosley Ave, , ,Towson,MD,Baltimore,21204, , , , ,24005,"401 Bosley Ave, Towson, MD 21204",39.4004577,-76.6079651
Sampson County Sheriff's Office,Sheriff's office,84, , , , , ,112 Fontana St, , ,Clinton,NC,Sampson,28328, , , , ,37163,"112 Fontana St, Clinton, NC 28328",34.992445,-78.3028849
Euless Police Department,Local police department,83, , , , , ,1102 W Euless Blvd, , ,Euless,TX,Tarrant,76040, , , , ,48439,"1102 W Euless Blvd, Euless, TX 76040",32.8290476,-97.10220439999999
Bullhead City Police Department,Local police department,83, , , , , ,1255 Marina Boulevard, , ,Bullhead City,AZ,Mohave,86442, , , , ,4015,"1255 Marina Boulevard, Bullhead City, AZ 86442",35.1013469,-114.6030899
Cleveland County Sheriff's Office,Sheriff's office,83, , , , , ,Po Box 1508, , ,Shelby,NC,Cleveland,28151, , , , ,37045,"Po Box 1508, Shelby, NC 28151",35.4164535,-81.6436207
Aiken Public Safety,Local police department,83, , , , , ,Po Drawer 1177,"251 Laurens St, NW", ,Aiken,SC,Aiken,29801, , , , ,45003,"Po Drawer 1177, Aiken, SC 29801",33.5604168,-81.7195533
Cochise County Sheriff's Office,Sheriff's office,83, , , , , ,205 N Judd Dr, , ,Bisbee,AZ,Cochise,85603, , , , ,4003,"205 N Judd Dr, Bisbee, AZ 85603",31.4327209,-109.8718157
Northside I.S.D. Police Dept.,Special jurisdiction,83, , , , , ,5619 Grissom Road, , ,San Antonio,TX,Bexar,78238, , , , ,48029,"5619 Grissom Road, San Antonio, TX 78238",29.4859063,-98.6261406
Columbia Police Department,Local police department,82, , , , , ,Po Box 10, , ,Columbia,TN,Maury,38401, , , , ,47119,"Po Box 10, Columbia, TN 38401",35.6603272,-87.0224442
Sevier County Sheriff's Office,Sheriff's office,82, , , , , ,106 W Bruce St, , ,Sevierville,TN,Sevier,37862, , , , ,47155,"106 W Bruce St, Sevierville, TN 37862",35.8671334,-83.56626969999999
De Soto Parish Sheriff's Office,Sheriff's office,81, , , , , ,205 Franklin St, , ,Mansfield,LA,De Soto,71052, , , , ,22031,"205 Franklin St, Mansfield, LA 71052",32.0394301,-93.709586
Mansfield Police Department,Local police department,81, , , , , ,1305 E. Broad St., , ,Mansfield,TX,Tarrant,76063, , , , ,48439,"1305 E. Broad St., Mansfield, TX 76063",32.5663534,-97.1248727
Sanford Police Department,Local police department,81, , , , , ,Po Box 3729, , ,Sanford,NC,Lee,27331, , , , ,37105,"Po Box 3729, Sanford, NC 27331",35.5241174,-79.1379448
Oconee County Sheriff's Office,Sheriff's office,81, , , , , ,415 S Pine St, , ,Walhalla,SC,Oconee,29691, , , , ,45073,"415 S Pine St, Walhalla, SC 29691",34.7588348,-83.0731637
Harris County Constable Pct. 7,Constable/marshal,81, , , , , ,5290 Griggs Road, , ,Houston,TX,Harris,77021, , , , ,48201,"5290 Griggs Road, Houston, TX 77021",29.6958738,-95.3341062
Summerville Police Department,Local police department,80, , , , , ,300 West 2Nd North Street, , ,Summerville,SC,Dorchester,29483, , , , ,45035,"300 West 2Nd North Street, Summerville, SC 29483",33.0239054,-80.1759103
Tipton County Sheriff's Office,Sheriff's office,80, , , , , ,121 W Madison St, , ,Covington,TN,Tipton,38019, , , , ,47167,"121 W Madison St, Covington, TN 38019",35.5699659,-89.6464641
Maury County Sheriff's Office,Sheriff's office,80, , , , , ,1300 Lawson White Dr, , ,Columbia,TN,Maury,38401, , , , ,47119,"1300 Lawson White Dr, Columbia, TN 38401",35.6383511,-87.0647491
Hamblen County Sheriff's Office,Sheriff's office,79, , , , , ,510 Allison St, , ,Morristown,TN,Hamblen,37814, , , , ,47063,"510 Allison St, Morristown, TN 37814",36.2149821,-83.2987469
Rowlett Police Department,Local police department,79, , , , , ,P. O. Box 370 4401 Rowlett Rd., , ,Rowlett,TX,Dallas,75030, , , , ,48113,"P. O. Box 370 4401 Rowlett Rd., Rowlett, TX 75030",32.9009548,-96.57008119999999
Smyrna Police Department,Local police department,79, , , , , ,325 W. Glenwood Street, , ,Smyrna,TN,Rutherford,37167, , , , ,47149,"325 W. Glenwood Street, Smyrna, TN 37167",35.9417793,-86.5143602
Parker County Sheriff's Office,Sheriff's office,79, , , , , ,129 Hogle St, , ,Weatherford,TX,Parker,76086, , , , ,48367,"129 Hogle St, Weatherford, TX 76086",32.7601561,-97.78742609999999
Kaufman County Sheriff's Office,Sheriff's office,79, , , , , ,1900 E Hwy 175,PO Drawer 849, ,Kaufman,TX,Kaufman,75142, , , , ,48257,"1900 E Hwy 175, Kaufman, TX 75142",32.6818705,-96.6137
Casa Grande Police Department,Local police department,79, , , , , ,520 North Marshall Street, , ,Casa Grande,AZ,Pinal,85222, , , , ,4021,"520 North Marshall Street, Casa Grande, AZ 85222",32.878584,-111.7508822
Sumner County Sheriff's Office,Sheriff's office,79, , , , , ,60 E Hillside, , ,Gallatin,TN,Sumner,37066, , , , ,47165,"60 E Hillside, Gallatin, TN 37066",36.39285,-86.3996316
West Monroe Police Department,Local police department,78, , , , , ,2301 N. 7Th St., , ,West Monroe,LA,Ouachita,71291, , , , ,22073,"2301 N. 7Th St., West Monroe, LA 71291",32.5202476,-92.1485639
Kannapolis Police Department,Local police department,78, , , , , ,314 South Main St, , ,Kannapolis,NC,Cabarrus,28081, , , , ,37025,"314 South Main St, Kannapolis, NC 28081",35.4932877,-80.6269633
Hammond Police Department,Local police department,78, , , , , ,Po Box 2788, , ,Hammond,LA,Tangipahoa,70404, , , , ,22105,"Po Box 2788, Hammond, LA 70404",30.5040918,-90.46136179999999
Slidell Police Department,Local police department,78, , , , , ,2112 Sgt. Alfred Dr, , ,Slidell,LA,St. Tammany,70458, , , , ,22103,"2112 Sgt. Alfred Dr, Slidell, LA 70458",30.27485009999999,-89.7801916
Houma Police Department,Local police department,78, , , , , ,500 Honduras St., , ,Houma,LA,Terrebonne,70360, , , , ,22109,"500 Honduras St., Houma, LA 70360",29.590153,-90.7224198
Georgetown County Sheriff's Office,Sheriff's office,78, , , , , ,Po Box 1292,430 N Fraser St, ,Georgetown,SC,Georgetown,29442, , , , ,45043,"Po Box 1292, Georgetown, SC 29442",33.38,-79.28999999999999
Asheboro Police Department,Local police department,77, , , , , ,Po Box 276, , ,Asheboro,NC,Randolph,27203, , , , ,37151,"Po Box 276, Asheboro, NC 27203",35.7718994,-79.8182714
Monroe Public Safety,Local police department,77, , , , , ,Po Box 69, , ,Monroe,NC,Union,28111, , , , ,37179,"Po Box 69, Monroe, NC 28111",35.0014016,-80.5680804
Huntersville Police Department,Local police department,76, , , , , ,Po Box 664, , ,Huntersville,NC,Mecklenburg,28070, , , , ,37119,"Po Box 664, Huntersville, NC 28070",35.4094161,-80.8498956
Cecil County Sheriff's Office,Sheriff's office,76, , , , , ,"107 Chesapeake Blvd, Ste 112", , ,Elkton,MD,Cecil,21921, , , , ,24015,"107 Chesapeake Blvd, Ste 112, Elkton, MD 21921",39.6025319,-75.787607
Coffee County Sheriff's Office,Sheriff's office,76, , , , , ,4 County Complex, , ,Manchester,TN,Coffee,37355, , , , ,47031,"4 County Complex, Manchester, TN 37355",35.4943674,-86.0729898
Caldwell County Sheriff's Office,Sheriff's office,76, , , , , ,54 N Franklin,P.O. Box 158, ,Lenoir,NC,Caldwell,28645, , , , ,37027,"54 N Franklin, Lenoir, NC 28645",35.9140196,-81.5389849
Missouri City Police Department,Local police department,75, , , , , ,3849 Cartwright Road, , ,Missouri City,TX,Fort Bend,77459, , , , ,48157,"3849 Cartwright Road, Missouri City, TX 77459",29.5819893,-95.5670746
Chatham County Sheriff's Office,Sheriff's office,75, , , , , ,1050 Carl Griffin Dr,PO Box 10026, ,Pittsboro,NC,Chatham,27312, , , , ,37037,"1050 Carl Griffin Dr, Pittsboro, NC 27312",35.7201463,-79.1772371
Nash County Sheriff's Office,Sheriff's office,75, , , , , ,Po Box 355,222 W Washington St, ,Nashville,NC,Nash,27856, , , , ,37127,"Po Box 355, Nashville, NC 27856",35.974598,-77.9655406
Guadalupe County Sheriff's Office,Sheriff's office,75, , , , , ,565 River Rd, , ,Seguin,TX,Guadalupe,78155, , , , ,48187,"565 River Rd, Seguin, TX 78155",29.5537456,-98.01886460000001
Cocke County Sheriff's Office,Sheriff's office,75, , , , , ,111 Court Ave, , ,Newport,TN,Cocke,37821, , , , ,47029,"111 Court Ave, Newport, TN 37821",35.9671399,-83.18430289999999
Weslaco Police Department,Local police department,75, , , , , ,901 N.  Airport Dr., , ,Weslaco,TX,Hidalgo,78596, , , , ,48215,"901 N.  Airport Dr., Weslaco, TX 78596",26.1714756,-97.9752085
Lubbock County Sheriff's Office,Sheriff's office,75, , , , , ,811 Main St,PO Box 10536, ,Lubbock,TX,Lubbock,79401, , , , ,48303,"811 Main St, Lubbock, TX 79401",33.5852981,-101.8436702
Henderson County Sheriff's Office,Sheriff's office,75, , , , , ,Po Box 228, , ,Athens,TX,Henderson,75751, , , , ,48213,"Po Box 228, Athens, TX 75751",32.2048735,-95.8555207
Kinston Police Department,Local police department,74, , , , , ,Po Box 339, , ,Kinston,NC,Lenoir,28502, , , , ,37107,"Po Box 339, Kinston, NC 28502",35.26,-77.58
Lufkin Police Department,Local police department,74, , , , , ,P.O. Drawer 190,300 EAST SHEPERD, ,Lufkin,TX,Angelina,75902, , , , ,48005,"P.O. Drawer 190, Lufkin, TX 75902",31.3374423,-94.7235939
Marana Police Department,Local police department,74, , , , , ,11555 West Civic Center Dr Bldg B, , ,Marana,AZ,Pima,85653, , , , ,4019,"11555 West Civic Center Dr Bldg B, Marana, AZ 85653",32.44790980000001,-111.2107408
Bedford Police Department,Local police department,74, , , , , ,215 E Main Street, , ,Bedford,TX,Tarrant,76021, , , , ,48439,"215 E Main Street, Bedford, TX 76021",32.8477269,-97.1305536
Rutherford County Sheriff's Office,Sheriff's office,74, , , , , ,198 N Washington St, , ,Rutherfordton,NC,Rutherford,28139, , , , ,37161,"198 N Washington St, Rutherfordton, NC 28139",35.3698155,-81.9578743
Moore County Sheriff's Office,Sheriff's office,74, , , , , ,58 Elm St S, , ,Carthage,NC,Moore,28327, , , , ,37125,"58 Elm St S, Carthage, NC 28327",35.3459867,-79.4169711
Anne Arundel County Sheriff's Office,Sheriff's office,73, , , , , ,"Po Box 507, Courthouse",7 Church Circle, ,Annapolis,MD,Anne Arundel,21401, , , , ,24003,"Po Box 507, Courthouse, Annapolis, MD 21401",38.979434,-76.4919706
Lumberton Police Department,Local police department,73, , , , , ,120 A East Chance Cut Off, , ,Lumberton,NC,Robeson,28359, , , , ,37155,"120 A East Chance Cut Off, Lumberton, NC 28359",34.6182199,-79.0086424
Georgetown Police Department,Local police department,73, , , , , ,108 East State Street, , ,Georgetown,TX,Williamson,78626, , , , ,48491,"108 East State Street, Georgetown, TX 78626",30.6487339,-97.63311300000001
Farmers Branch Police Department,Local police department,73, , , , , ,3723 Valley View Lane, , ,Farmers Branch,TX,Dallas,75244, , , , ,48113,"3723 Valley View Lane, Farmers Branch, TX 75244",32.9249264,-96.85453240000001
Haltom City Police Department,Local police department,72, , , , , ,5110 Broadway Ave, , ,Haltom City,TX,Tarrant,76117, , , , ,48439,"5110 Broadway Ave, Haltom City, TX 76117",32.8089836,-97.2722865
Cedar Park Police Department,Local police department,72, , , , , ,911 Quest Parkway, , ,Cedar Park,TX,Williamson,78613, , , , ,48491,"911 Quest Parkway, Cedar Park, TX 78613",30.5200695,-97.82523619999999
Yuma County Sheriff's Office,Sheriff's office,72, , , , , ,141 S 3Rd Ave, , ,Yuma,AZ,Yuma,85364, , , , ,4027,"141 S 3Rd Ave, Yuma, AZ 85364",32.7243355,-114.6228802
La Porte Police Department,Local police department,72, , , , , ,3001 North 23rd, , ,La Porte,TX,Harris,77571, , , , ,48201,"3001 North 23rd, La Porte, TX 77571",29.66614689999999,-95.04225729999999
Hurst Police Department,Local police department,72, , , , , ,1501 Precinct Line Rd., , ,Hurst,TX,Tarrant,76054, , , , ,48439,"1501 Precinct Line Rd., Hurst, TX 76054",32.8406578,-97.18820269999999
Orangeburg Public Safety,Local police department,72, , , , , ,Po Box 1425, , ,Orangeburg,SC,Orangeburg,29116, , , , ,45075,"Po Box 1425, Orangeburg, SC 29116",33.4899724,-80.85997619999999
North Myrtle Beach Public Safety,Local police department,72, , , , , ,1015 2Nd Avenue South, , ,N. Myrtle Beach,SC,Horry,29582, , , , ,45051,"1015 2Nd Avenue South, N. Myrtle Beach, SC 29582",33.8277319,-78.6853687
Prescott Police Department,Local police department,72, , , , , ,1601 Pine Street, , ,Prescott,AZ,Yavapai,86303, , , , ,4025,"1601 Pine Street, Prescott, AZ 86303",34.5136658,-112.48441
St. James Parish Sheriff's Office,Sheriff's office,71, , , , , ,Po Box 83,5800 LA Highway 44, ,Convent,LA,St. James,70723, , , , ,22093,"Po Box 83, Convent, LA 70723",30.0207933,-90.8300269
Eagle Pass Police Department,Local police department,71, , , , , ,100 South Monroe Street, , ,Eagle Pass,TX,Maverick,78852, , , , ,48323,"100 South Monroe Street, Eagle Pass, TX 78852",28.7054636,-100.5008759
Sabine Parish Sheriff's Office,Sheriff's office,71, , , , , ,Po Box 1440, , ,Many,LA,Sabine,71449, , , , ,22085,"Po Box 1440, Many, LA 71449",31.5687848,-93.4840645
Duplin County Sheriff's Office,Sheriff's office,71, , , , , ,Po Box 908, , ,Kenansville,NC,Duplin,28349, , , , ,37061,"Po Box 908, Kenansville, NC 28349",34.9623883,-77.9622069
Greenwood County Sheriff's Office,Sheriff's office,71, , , , , ,528 Edgefield St, , ,Greenwood,SC,Greenwood,29646, , , , ,45047,"528 Edgefield St, Greenwood, SC 29646",34.1874762,-82.16379959999999
San Antonio I.S.D. Police Dept.,Special jurisdiction,71, , , , , ,1702 N. Alamo, , ,San Antonio,TX,Bexar,78215, , , , ,48029,"1702 N. Alamo, San Antonio, TX 78215",29.4413275,-98.47580099999999
Lebanon Police Department,Local police department,70, , , , , ,40 E. Maple, , ,Lebanon,TN,Wilson,37087, , , , ,47189,"40 E. Maple, Lebanon, TN 37087",36.1985366,-86.2944185
Pflugerville Police Department,Local police department,70, , , , , ,1611 E. Pfennig Ln.,PO Box 679, ,Pflugerville,TX,Travis,78691, , , , ,48453,"1611 E. Pfennig Ln., Pflugerville, TX 78691",30.4512569,-97.6073881
Cookeville Police Department,Local police department,70, , , , , ,P.O. Box 849, , ,Cookeville,TN,Putnam,38503, , , , ,47141,"P.O. Box 849, Cookeville, TN 38503",36.16332999999999,-85.50542999999999
Shelby Police Department,Local police department,70, , , , , ,Post Office Box 43, , ,Shelby,NC,Cleveland,28151, , , , ,37045,"Post Office Box 43, Shelby, NC 28151",35.4164535,-81.6436207
Austin I.S.D. Police Department,Special jurisdiction,70, , , , , ,"1111 W 6Th St, C-120", , ,Austin,TX,Travis,78703, , , , ,48453,"1111 W 6Th St, C-120, Austin, TX 78703",30.2721831,-97.756345
Arizona State University Police Department,Special jurisdiction,70, , , , , ,P. O. Box 870804, , ,Tempe,AZ,Maricopa,85287, , , , ,4013,"P. O. Box 870804, Tempe, AZ 85287",33.418294,-111.9311925
Bastrop County Sheriff's Office,Sheriff's office,69, , , , , ,200 Jackson St, , ,Bastrop,TX,Bastrop,78602, , , , ,48021,"200 Jackson St, Bastrop, TX 78602",30.1015906,-97.3086258
Wilkes County Sheriff's Office,Sheriff's office,69, , , , , ,225 Andrew Dr, , ,Wilkesboro,NC,Wilkes,28697, , , , ,37193,"225 Andrew Dr, Wilkesboro, NC 28697",36.1161581,-81.1757784
Statesville Police Department,Local police department,69, , , , , ,Po Box 506, , ,Statesville,NC,Iredell,28687, , , , ,37097,"Po Box 506, Statesville, NC 28687",35.78,-80.89
Harris County Constable Pct. 6,Constable/marshal,69, , , , , ,333 Lockwood Trg. & Rectg., , ,Houston,TX,Harris,77011, , , , ,48201,"333 Lockwood Trg. & Rectg., Houston, TX 77011",29.7504227,-95.3248306
Craven County Sheriff's Office,Sheriff's office,68, , , , , ,Po Box 1027,411 Craven St, ,New Bern,NC,Craven,28563, , , , ,37049,"Po Box 1027, New Bern, NC 28563",35.1,-77.1
Randall County Sheriff's Office,Sheriff's office,68, , , , , ,9100 S Georgia St, , ,Amarillo,TX,Randall,79118, , , , ,48381,"9100 S Georgia St, Amarillo, TX 79118",35.115385,-101.8680283
Desoto Police Department,Local police department,68, , , , , ,17 Boyd Street, , ,Desoto,TX,Dallas,75115, , , , ,48113,"17 Boyd Street, Desoto, TX 75115",32.6459508,-96.8800863
Bristol Police Department,Local police department,68, , , , , ,501 Scott Street, , ,Bristol,TN,Sullivan,37620, , , , ,47163,"501 Scott Street, Bristol, TN 37620",36.5987939,-82.18168759999999
Maryland Department of General Services Police,Special jurisdiction,68, , , , , ,301 West Preston St, , ,Baltimore,MD,Baltimore City,21201, , , , ,24510,"301 West Preston St, Baltimore, MD 21201",39.301592,-76.62210139999999
Morganton Public Safety,Local police department,67, , , , , ,304 S. College Street, , ,Morganton,NC,Burke,28655, , , , ,37023,"304 S. College Street, Morganton, NC 28655",35.7412044,-81.68713350000002
Carroll County Sheriff's Office,Sheriff's office,67, , , , , ,Po Box 291, , ,Westminster,MD,Carroll,21157, , , , ,24013,"Po Box 291, Westminster, MD 21157",39.5691599,-76.99717179999999
Prescott Valley Police Department,Local police department,67, , , , , ,7601 East Civic Circle, , ,Prescott Valley,AZ,Yavapai,86314, , , , ,4025,"7601 East Civic Circle, Prescott Valley, AZ 86314",34.5950522,-112.3320073
Jefferson Davis Parish Sheriff's Office,Sheriff's office,67, , , , , ,Po Box 863, , ,Jennings,LA,Jefferson Davis,70546, , , , ,22053,"Po Box 863, Jennings, LA 70546",30.2478896,-92.6387795
South Carolina Bureau of Protective Services,Special jurisdiction,67, , , , , ,P.O. Box 1993, , ,Blythewood,SC,Richland,29016, , , , ,45079,"P.O. Box 1993, Blythewood, SC 29016",34.2143159,-80.97397699999999
San Antonio Airport Police,Special jurisdiction,66, , , , , ,9800 Airport Blvd,Dept of Aviation, ,San Antonio,TX,Bexar,78216, , , , ,48029,"9800 Airport Blvd, San Antonio, TX 78216",29.5264362,-98.4732642
Rockwall Police Department,Local police department,66, , , , , ,205 W. Rusk, , ,Rockwall,TX,Rockwall,75087, , , , ,48397,"205 W. Rusk, Rockwall, TX 75087",32.9310441,-96.46119189999999
Thomasville Police Department,Local police department,66, , , , , ,Po Box 1669, , ,Thomasville,NC,Davidson,27361, , , , ,37057,"Po Box 1669, Thomasville, NC 27361",35.88,-80.08000000000001
Cedar Hill Police Department,Local police department,66, , , , , ,285 Uptown Blvd., , ,Cedar Hill,TX,Dallas,75104, , , , ,48113,"285 Uptown Blvd., Cedar Hill, TX 75104",32.5929355,-96.9513946
Tohono O'Odham Tribal Police,Local police department,66, , , , , ,Po Box 189, , ,Sells,AZ,Pima,85634, , , , ,4019,"Po Box 189, Sells, AZ 85634",31.9120215,-111.881234
Madison County Sheriff's Office,Sheriff's office,66, , , , , ,405 Randle St, , ,Jackson,TN,Madison,38301, , , , ,47113,"405 Randle St, Jackson, TN 38301",35.5821649,-88.8455037
Orange County Sheriff's Office,Sheriff's office,65, , , , , ,Po Box 1468, , ,Orange,TX,Orange,77631, , , , ,48361,"Po Box 1468, Orange, TX 77631",30.09416749999999,-93.7331813
Franklin County Sheriff's Office,Sheriff's office,65, , , , , ,157 Lincoln Way E, , ,Louisburg,NC,Franklin,27549, , , , ,37069,"157 Lincoln Way E, Louisburg, NC 27549",36.0990393,-78.30110599999999
Kernersville Police Department,Local police department,65, , , , , ,Po Box 728, , ,Kernersville,NC,Forsyth,27285, , , , ,37067,"Po Box 728, Kernersville, NC 27285",36.12,-80.0699999
Gallatin Police Department,Local police department,65, , , , , ,112 E Grand, , ,Gallatin,TN,Sumner,37066, , , , ,47165,"112 E Grand, Gallatin, TN 37066",36.3883495,-86.4463751
Del Rio Police Department,Local police department,65, , , , , ,110 East Broadway, , ,Del Rio,TX,Val Verde,78840, , , , ,48465,"110 East Broadway, Del Rio, TX 78840",29.361865,-100.899276
Laurens County Sheriff's Office,Sheriff's office,65, , , , , ,Po Box 68,216 W Main St, ,Laurens,SC,Laurens,29360, , , , ,45059,"Po Box 68, Laurens, SC 29360",34.4990116,-82.0142597
Coconino County Sheriff's Office,Sheriff's office,64, , , , , ,911 E Sawmill Rd, , ,Flagstaff,AZ,Coconino,86001, , , , ,4005,"911 E Sawmill Rd, Flagstaff, AZ 86001",35.1881151,-111.6420445
Lexington Police Department,Local police department,64, , , , , ,1575 Massachusetts Avenue, , ,Lexington,NC,Davidson,27292, , , , ,37057,"1575 Massachusetts Avenue, Lexington, NC 27292",35.8240265,-80.2533838
Vernon Parish Sheriff's Office,Sheriff's office,64, , , , , ,Po Box 649,203 S Third St, ,Leesville,LA,Vernon,71496, , , , ,22115,"Po Box 649, Leesville, LA 71496",31.14,-93.25999999999999
Midland County Sheriff's Office,Sheriff's office,64, , , , , ,2727 Rodd St, , ,Midland,TX,Midland,79701, , , , ,48329,"2727 Rodd St, Midland, TX 79701",31.9973456,-102.0779146
Darlington County Sheriff's Office,Sheriff's office,64, , , , , ,Po Box 783, , ,Darlington,SC,Darlington,29540, , , , ,45031,"Po Box 783, Darlington, SC 29540",34.3003526,-79.8757116
Texas A & M University Police Dept.,Special jurisdiction,64, , , , , ,1231 Tamu, , ,College Station,TX,Brazos,77843, , , , ,48041,"1231 Tamu, College Station, TX 77843",30.6096445,-96.33959209999999
Rosenberg Police Department,Local police department,63, , , , , ,2120 4Th St., , ,Rosenberg,TX,Fort Bend,77471, , , , ,48157,"2120 4Th St., Rosenberg, TX 77471",29.545918,-95.806096
Currituck County Sheriff's Office,Sheriff's office,63, , , , , ,407 Maple Rd, , ,Maple,NC,Currituck,27956, , , , ,37053,"407 Maple Rd, Maple, NC 27956",36.3988007,-76.01912399999999
Beauregard Parish Sheriff's Office,Sheriff's office,63, , , , , ,Po Box 370, , ,Deridder,LA,Beauregard,70634, , , , ,22011,"Po Box 370, Deridder, LA 70634",30.8463055,-93.2890527
Colleton County Sheriff's Office,Sheriff's office,63, , , , , ,112 Miller St, , ,Walterboro,SC,Colleton,29488, , , , ,45029,"112 Miller St, Walterboro, SC 29488",32.901075,-80.659868
Sherman Police Department,Local police department,63, , , , , ,Post Office Box 397, , ,Sherman,TX,Grayson,75090, , , , ,48181,"Post Office Box 397, Sherman, TX 75090",33.6005808,-96.55698819999999
Lancaster Police Department,Local police department,63, , , , , ,25 Main Street, , ,Lancaster,TX,Dallas,75134, , , , ,48113,"25 Main Street, Lancaster, TX 75134",32.6472249,-96.71231949999999
Dare County Sheriff's Office,Sheriff's office,63, , , , , ,Po Box 757, , ,Manteo,NC,Dare,27954, , , , ,37055,"Po Box 757, Manteo, NC 27954",35.9082256,-75.67573019999999
Buckeye Police Department,Local police department,63, , , , , ,"100 North Apache, Suite D", , ,Buckeye,AZ,Maricopa,85326, , , , ,4013,"100 North Apache, Suite D, Buckeye, AZ 85326",33.3722826,-112.5726278
Medical University of South Carolina Public Safety,Special jurisdiction,62, , , , , ,Po Box 250859, , ,Charleston,SC,Charleston,29425, , , , ,45019,"Po Box 250859, Charleston, SC 29425",32.785895,-79.94794960000002
University of Maryland - Baltimore Police,Special jurisdiction,62, , , , , ,214 N Pine Street, , ,Baltimore,MD,Baltimore City,21201, , , , ,24510,"214 N Pine Street, Baltimore, MD 21201",39.2917793,-76.6272335
Louisiana State University Police Department,Special jurisdiction,62, , , , , ,Public Safety Building, , ,Baton Rouge,LA,East Baton Rouge,70803, , , , ,22033,"Public Safety Building, Baton Rouge, LA 70803",30.41,-91.17999999999999
Nashville Metro Airport Police Department,Special jurisdiction,61, , , , , ,"1 Terminal Drive, Suite 501", , ,Nashville,TN,Davidson,37214, , , , ,47037,"1 Terminal Drive, Suite 501, Nashville, TN 37214",36.1314892,-86.66923369999999
Kershaw County Sheriff's Office,Sheriff's office,61, , , , , ,PO Box 70, , ,Lugoff,SC,Kershaw,29078, , , , ,45055,"PO Box 70, Lugoff, SC 29078",34.2273712,-80.6892486
Garner Police Department,Local police department,61, , , , , ,Po Box 446, , ,Garner,NC,Wake,27529, , , , ,37183,"Po Box 446, Garner, NC 27529",35.6544684,-78.5887951
Humble Police Department,Local police department,61, , , , , ,310 Bender Ave., , ,Humble,TX,Harris,77338, , , , ,48201,"310 Bender Ave., Humble, TX 77338",29.9993608,-95.26760349999999
East Feliciana Parish Sheriff's Office,Sheriff's office,61, , , , , ,Po Box 207, , ,Clinton,LA,East Feliciana,70722, , , , ,22037,"Po Box 207, Clinton, LA 70722",30.8657362,-91.01565939999999
Columbus County Sheriff's Office,Sheriff's office,60, , , , , ,Po Box 280, , ,Whiteville,NC,Columbus,28472, , , , ,37047,"Po Box 280, Whiteville, NC 28472",34.3387802,-78.7030721
Laurel Police Department,Local police department,60, , , , , ,350 Municipal Square, , ,Laurel,MD,Prince Georges,20707, , , , ,24033,"350 Municipal Square, Laurel, MD 20707",39.1060425,-76.844566
Navarro County Sheriff's Office,Sheriff's office,60, , , , , ,312 W 2Nd Ave, , ,Corsicana,TX,Navarro,75110, , , , ,48349,"312 W 2Nd Ave, Corsicana, TX 75110",32.0962389,-96.4688627
Addison Police Department,Local police department,60, , , , , ,P. O. Box 9010, , ,Addison,TX,Dallas,75001, , , , ,48113,"P. O. Box 9010, Addison, TX 75001",32.9654778,-96.8297403
Nueces County Sheriff's Office,Sheriff's office,60, , , , , ,901 Leopard St,PO Box 1940, ,Corpus Christi,TX,Nueces,78401, , , , ,48355,"901 Leopard St, Corpus Christi, TX 78401",27.7949362,-97.40038469999999
Iberville Parish Sheriff's Office,Sheriff's office,60, , , , , ,Po Box 231,58050 Meriam St, ,Plaquemine,LA,Iberville,70765, , , , ,22047,"Po Box 231, Plaquemine, LA 70765",30.29,-91.22999999999999
Nogales Police Department,Local police department,60, , , , , ,777 North Grande Avenue, , ,Nogales,AZ,Santa Cruz,85621, , , , ,4023,"777 North Grande Avenue, Nogales, AZ 85621",31.3455127,-110.9314066
McMinn County Sheriff's Office,Sheriff's office,60, , , , , ,1319 S White St,PO Box 649, ,Athens,TN,McMinn,37303, , , , ,47107,"1319 S White St, Athens, TN 37303",35.4224034,-84.5825629
Sierra Vista Police Department,Local police department,60, , , , , ,911 North Coronado Drive, , ,Sierra Vista,AZ,Cochise,85635, , , , ,4003,"911 North Coronado Drive, Sierra Vista, AZ 85635",31.5642947,-110.2735029
Coppell Police Department,Local police department,59, , , , , ,130 Town Center Blvd., , ,Coppell,TX,Dallas,75019, , , , ,48113,"130 Town Center Blvd., Coppell, TX 75019",32.9746813,-96.9919139
Nacogdoches Police Department,Local police department,59, , , , , ,Po Box 635030, , ,Nacogdoches,TX,Nacogdoches,75963, , , , ,48347,"Po Box 635030, Nacogdoches, TX 75963",31.60323,-94.65507
Goose Creek Police Department,Local police department,59, , , , , ,Po Drawer 1768, , ,Goose Creek,SC,Berkeley,29445, , , , ,45015,"Po Drawer 1768, Goose Creek, SC 29445",33.0026132,-79.99759159999999
Fort Worth City Marshal''s Office,Constable/marshal,59, , , , , ,1000 Throckmorton St., , ,Fort Worth,TX,Tarrant,76102, , , , ,48439,"1000 Throckmorton St., Fort Worth, TX 76102",32.7496705,-97.3304845
Opelousas Police Department,Local police department,58, , , , , ,Po Box 1757, , ,Opelousas,LA,St. Landry,70571, , , , ,22097,"Po Box 1757, Opelousas, LA 70571",30.535195,-92.072237
Grayson County Sheriff's Office,Sheriff's office,58, , , , , ,200 S Crockett St, , ,Sherman,TX,Grayson,75090, , , , ,48181,"200 S Crockett St, Sherman, TX 75090",33.6343721,-96.6106282
Putnam County Sheriff's Office,Sheriff's office,58, , , , , ,13 Keightly Rd,PO Box 495, ,Cookeville,TN,Putnam,38501, , , , ,47141,"13 Keightly Rd, Cookeville, TN 38501",36.240078,-85.5247372
Halifax County Sheriff's Office,Sheriff's office,58, , , , , ,Po Box 36, , ,Halifax,NC,Halifax,27839, , , , ,37083,"Po Box 36, Halifax, NC 27839",36.328486,-77.5894199
Lenoir County Sheriff's Office,Sheriff's office,58, , , , , ,Po Box 3289, , ,Kinston,NC,Lenoir,28502, , , , ,37107,"Po Box 3289, Kinston, NC 28502",35.26,-77.58
Surry County Sheriff's Office,Sheriff's office,58, , , , , ,Po Box 827, , ,Dobson,NC,Surry,27017, , , , ,37171,"Po Box 827, Dobson, NC 27017",36.3956891,-80.722567
Tom Green County Sheriff's Office,Sheriff's office,58, , , , , ,222 W Harris Ave, , ,San Angelo,TX,Tom Green,76903, , , , ,48451,"222 W Harris Ave, San Angelo, TX 76903",31.4629815,-100.4416316
Maricopa Police Department,Local police department,58, , , , , ,Po Box 610, , ,Maricopa,AZ,Pinal,85239, , , , ,4021,"Po Box 610, Maricopa, AZ 85239",33.0581063,-112.0476423
Arizona State Parks - Law Enforcement,Special jurisdiction,58, , , , , ,1300 W Washington St, , ,Phoenix,AZ,Maricopa,85007, , , , ,4013,"1300 W Washington St, Phoenix, AZ 85007",33.4485321,-112.089862
Dickson County Sheriff's Office,Sheriff's office,57, , , , , ,Po Box 177, , ,Charlotte,TN,Dickson,37036, , , , ,47043,"Po Box 177, Charlotte, TN 37036",36.1772797,-87.33973189999999
Pineville Police Department,Local police department,57, , , , , ,Post Office Box 220, , ,Pineville,LA,Rapides,71360, , , , ,22079,"Post Office Box 220, Pineville, LA 71360",31.3224044,-92.4343035
Oak Ridge Police Department,Local police department,57, , , , , ,P.O. Box 1, , ,Oak Ridge,TN,Anderson,37831, , , , ,47001,"P.O. Box 1, Oak Ridge, TN 37831",35.9978822,-84.167516
Anderson County Sheriff's Office,Sheriff's office,57, , , , , ,141 S Main St, , ,Clinton,TN,Anderson,37716, , , , ,47001,"141 S Main St, Clinton, TN 37716",36.0985345,-84.13432879999999
Duncanville Police Department,Local police department,57, , , , , ,P. O. Box 380280,203 E. WHEATLAND, ,Duncanville,TX,Dallas,75116, , , , ,48113,"P. O. Box 380280, Duncanville, TX 75116",32.657579,-96.9155468
Rockville Police Department,Local police department,57, , , , , ,111 Maryland Avenue, , ,Rockville,MD,Montgomery,20850, , , , ,24031,"111 Maryland Avenue, Rockville, MD 20850",39.0817248,-77.15169550000002
Greene County Sheriff's Office,Sheriff's office,57, , , , , ,400 Morrow Ave,PO Box 109, ,Greeneville,TN,Greene,37743, , , , ,47059,"400 Morrow Ave, Greeneville, TN 37743",36.1746484,-82.8084487
Loudon County Sheriff's Office,Sheriff's office,57, , , , , ,12680 Highway 11 W Ste 1, , ,Lenoir City,TN,Loudon,37771, , , , ,47105,"12680 Highway 11 W Ste 1, Lenoir City, TN 37771",35.7716771,-84.3119897
North Carolina Division of Marine Patrol,Special jurisdiction,57, , , , , ,Po Box 769, , ,Morehead City,NC,Carteret,28557, , , , ,37031,"Po Box 769, Morehead City, NC 28557",34.7394328,-76.745195
Kingman Police Department,Local police department,57, , , , , ,120 N Spruce St, , ,Kingman,AZ,Mohave,86401, , , , ,4015,"120 N Spruce St, Kingman, AZ 86401",35.195155,-114.0572649
Pender County Sheriff's Office,Sheriff's office,57, , , , , ,Po Box 1449, , ,Burgaw,NC,Pender,28425, , , , ,37141,"Po Box 1449, Burgaw, NC 28425",34.5521113,-77.92609800000001
Elizabeth City Police Department,Local police department,56, , , , , ,Po Box 347, , ,Elizabeth City,NC,Pasquotank,27907, , , , ,37139,"Po Box 347, Elizabeth City, NC 27907",36.3,-76.22
Morgan City Police Department,Local police department,56, , , , , ,Po Box 1670, , ,Morgan City,LA,St. Mary,70381, , , , ,22101,"Po Box 1670, Morgan City, LA 70381",29.6940223,-91.20866989999999
Greer Police Department,Local police department,56, , , , , ,102 S. Main St., , ,Greer,SC,Greenville,29650, , , , ,45045,"102 S. Main St., Greer, SC 29650",34.9384459,-82.2280763
Brentwood Police Department,Local police department,56, , , , , ,P.O. Box 788, , ,Brentwood,TN,Williamson,37024, , , , ,47187,"P.O. Box 788, Brentwood, TN 37024",36.036508,-86.7847457
North Carolina State Capitol Police,Special jurisdiction,56, , , , , ,417 North Salisbury St., , ,Raleigh,NC,Wake,27603, , , , ,37183,"417 North Salisbury St., Raleigh, NC 27603",35.7858822,-78.6403318
Friendswood Police Department,Local police department,55, , , , , ,1600 Whitaker Drive, , ,Friendswood,TX,Galveston,77546, , , , ,48167,"1600 Whitaker Drive, Friendswood, TX 77546",29.4969301,-95.20212790000001
Sevierville Police Department,Local police department,55, , , , , ,300 Gary R. Wade Blvd, , ,Sevierville,TN,Sevier,37862, , , , ,47155,"300 Gary R. Wade Blvd, Sevierville, TN 37862",35.8646326,-83.5582484
Horry County Sheriff's Office,Sheriff's office,55, , , , , ,1301 2Nd Ave,PO Box 380, ,Conway,SC,Horry,29526, , , , ,45051,"1301 2Nd Ave, Conway, SC 29526",33.8319236,-79.0482313
Dyersburg Police Department,Local police department,55, , , , , ,425  W. Market St., , ,Dyersburg,TN,Dyer,38024, , , , ,47045,"425  W. Market St., Dyersburg, TN 38024",36.0320482,-89.3901489
Apex Police Department,Local police department,55, , , , , ,205 Saunders Street, , ,Apex,NC,Wake,27502, , , , ,37183,"205 Saunders Street, Apex, NC 27502",35.7318906,-78.8521203
Harris County Constable Pct. 8,Constable/marshal,55, , , , , ,"7330 Spencer Highway, Suite 107", , ,Pasadena,TX,Harris,77505, , , , ,48201,"7330 Spencer Highway, Suite 107, Pasadena, TX 77505",29.661785,-95.125827
Alamo Community College District Police,Special jurisdiction,55, , , , , ,"201 W Sheridan, Bldg C", , ,San Antonio,TX,Bexar,78204, , , , ,48029,"201 W Sheridan, Bldg C, San Antonio, TX 78204",29.4163997,-98.4978584
Dallas County Constable Pct. 1,Constable/marshal,55, , , , , ,7201 S. Polk St,Attn: Sheryl Malone, ,Dallas,TX,Dallas,75232, , , , ,48113,"7201 S. Polk St, Dallas, TX 75232",32.6605472,-96.8407139
Weatherford Police Department,Local police department,55, , , , , ,201 S. W. Main Street, , ,Weatherford,TX,Parker,76086, , , , ,48367,"201 S. W. Main Street, Weatherford, TX 76086",32.7522671,-97.7905758
Austin Community College District Police,Special jurisdiction,55, , , , , ,9101 Tuscany Way, , ,Austin,TX,Travis,78754, , , , ,48453,"9101 Tuscany Way, Austin, TX 78754",30.3387619,-97.6620475
Apache Junction Police Department,Local police department,55, , , , , ,300 E. Superstition Blvd., , ,Apache Junction,AZ,Pinal,85219, , , , ,4021,"300 E. Superstition Blvd., Apache Junction, AZ 85219",33.4238152,-111.5427823
Pigeon Forge Police Department,Local police department,54, , , , , ,P.O. Box 1350, , ,Pigeon Forge,TN,Sevier,37868, , , , ,47155,"P.O. Box 1350, Pigeon Forge, TN 37868",35.7899653,-83.5499731
Taylor County Sheriff's Office,Sheriff's office,54, , , , , ,203 N Court St, , ,Abilene,TX,Taylor,79602, , , , ,48441,"203 N Court St, Abilene, TX 79602",32.3249863,-99.6564092
Chester County Sheriff's Office,Sheriff's office,54, , , , , ,Po Box 19,126 Crook Ave, ,Chester,SC,Chester,29706, , , , ,45023,"Po Box 19, Chester, SC 29706",34.7649635,-81.20781640000001
Cayce Public Safety,Local police department,54, , , , , ,Po Box 2004,PO Box 2004, ,Cayce,SC,Lexington,29033, , , , ,45063,"Po Box 2004, Cayce, SC 29033",33.9557774,-81.058906
Deer Park Police Department,Local police department,54, , , , , ,2911 Center Street, , ,Deer Park,TX,Harris,77536, , , , ,48201,"2911 Center Street, Deer Park, TX 77536",29.68664029999999,-95.1227072
Paris Police Department,Local police department,54, , , , , ,1810 East Walnut Street, , ,Paris,TX,Lamar,75460, , , , ,48277,"1810 East Walnut Street, Paris, TX 75460",33.6645284,-95.523972
Mooresville Police Department,Local police department,54, , , , , ,Po Box 1250,750 W Iredell Ave., ,Mooresville,NC,Iredell,28115, , , , ,37097,"Po Box 1250, Mooresville, NC 28115",35.584285,-80.7879407
Greenbelt Police Department,Local police department,54, , , , , ,550 Crescent Road, , ,Greenbelt,MD,Prince Georges,20770, , , , ,24033,"550 Crescent Road, Greenbelt, MD 20770",39.0076241,-76.8911662
Matthews Police Department,Local police department,54, , , , , ,Po Box 54, , ,Matthews,NC,Mecklenburg,28105, , , , ,37119,"Po Box 54, Matthews, NC 28105",35.1105564,-80.7103532
Rhea County Sheriff's Office,Sheriff's office,54, , , , , ,444 2Nd Ave, , ,Dayton,TN,Rhea,37321, , , , ,47143,"444 2Nd Ave, Dayton, TN 37321",35.4953205,-85.0140064
University of South Carolina Law Enforcement & Safety,Special jurisdiction,54, , , , , ,1501 Senate Street, , ,Columbia,SC,Richland,29208, , , , ,45079,"1501 Senate Street, Columbia, SC 29208",34.0019068,-81.02779199999999
Harris County Constable Pct. 2,Constable/marshal,54, , , , , ,109 E. Shaw,Attn: Capt. Gary Claunch, ,Pasadena,TX,Harris,77506, , , , ,48201,"109 E. Shaw, Pasadena, TX 77506",29.71601119999999,-95.2005729
Cleburne Police Department,Local police department,54, , , , , ,Po Box 677 Po Box 657, , ,Cleburne,TX,Johnson,76033, , , , ,48251,"Po Box 677 Po Box 657, Cleburne, TX 76033",32.3476438,-97.38668369999999
University of Arizona Police Department,Special jurisdiction,54, , , , , ,1852 East 1St Street, , ,Tucson,AZ,Pima,85721, , , , ,4019,"1852 East 1St Street, Tucson, AZ 85721",32.2345759,-110.9444782
Dallas County Hospital District Police,Special jurisdiction,54, , , , , ,5201 Harry Hines Blvd., , ,Dallas,TX,Dallas,75235, , , , ,48113,"5201 Harry Hines Blvd., Dallas, TX 75235",32.8105277,-96.83765729999999
Gila County Sheriff's Office,Sheriff's office,53, , , , , ,Po Box 311,1100 South St, ,Globe,AZ,Gila,85502, , , , ,4007,"Po Box 311, Globe, AZ 85502",33.39,-110.79
Lenoir Police Department,Local police department,53, , , , , ,"1035 West Avenue, Nw", , ,Lenoir,NC,Caldwell,28645, , , , ,37027,"1035 West Avenue, Nw, Lenoir, NC 28645",35.9135185,-81.54211409999999
The Colony Police Department,Local police department,53, , , , , ,5151 N. Colony Blvd., , ,The Colony,TX,Denton,75056, , , , ,48121,"5151 N. Colony Blvd., The Colony, TX 75056",33.0991089,-96.87860339999999
Burleson Police Department,Local police department,53, , , , , ,225 W. Renfro, , ,Burleson,TX,Johnson,76028, , , , ,48251,"225 W. Renfro, Burleson, TX 76028",32.5424704,-97.3247485
Waxahachie Police Department,Local police department,53, , , , , ,216 N. College, , ,Waxahachie,TX,Ellis,75165, , , , ,48139,"216 N. College, Waxahachie, TX 75165",32.3866554,-96.846349
Wise County Sheriff's Office,Sheriff's office,52, , , , , ,200 Rook Ramsey Dr, , ,Decatur,TX,Wise,76234, , , , ,48497,"200 Rook Ramsey Dr, Decatur, TX 76234",33.232073,-97.61079
Thibodaux Police Department,Local police department,52, , , , , ,1309 Canal Blvd., , ,Thibodaux,LA,Lafourche,70301, , , , ,22057,"1309 Canal Blvd., Thibodaux, LA 70301",29.7840512,-90.8204422
Copperas Cove Police Department,Local police department,52, , , , , ,202 S. 4Th St., , ,Copperas Cove,TX,Coryell,76522, , , , ,48099,"202 S. 4Th St., Copperas Cove, TX 76522",31.1228218,-97.8964778
Marshall Police Department,Local police department,52, , , , , ,611 W. Main St.,P.O. BOX 477, ,Marshall,TX,Harrison,75671, , , , ,48203,"611 W. Main St., Marshall, TX 75671",32.5416032,-94.3663067
Wake Forest Police Department,Local police department,52, , , , , ,401 E. Owen Ave., , ,Wake Forest,NC,Wake,27587, , , , ,37183,"401 E. Owen Ave., Wake Forest, NC 27587",35.97578,-78.50712999999999
Burnet County Sheriff's Office,Sheriff's office,52, , , , , ,Po Box 1249,1601 E Polk, ,Burnet,TX,Burnet,78611, , , , ,48053,"Po Box 1249, Burnet, TX 78611",30.75823759999999,-98.2283585
West Columbia Police Department,Local police department,52, , , , , ,310 E. Clay, , ,West Columbia,SC,Lexington,29171, , , , ,45063,"310 E. Clay, West Columbia, SC 29171",33.99,-81.0699999
Highland Park Department of Public Safety,Local police department,52, , , , , ,4700 Drexel Dr., , ,Dallas,TX,Dallas,75205, , , , ,48113,"4700 Drexel Dr., Dallas, TX 75205",32.8284777,-96.7964969
North Augusta Public Safety,Local police department,52, , , , , ,Po Box 6400, , ,North Augusta,SC,Aiken,29861, , , , ,45003,"Po Box 6400, North Augusta, SC 29861",33.508128,-81.9625793
Navajo County Sheriff's Office,Sheriff's office,52, , , , , ,Po Box 668,Governmental Complex, ,Holbrook,AZ,Navajo,86025, , , , ,4017,"Po Box 668, Holbrook, AZ 86025",34.9022482,-110.1581768
Richmond County Sheriff's Office,Sheriff's office,52, , , , , ,Po Box 115, , ,Rockingham,NC,Richmond,28379, , , , ,37153,"Po Box 115, Rockingham, NC 28379",34.9393201,-79.7739457
University of Tennessee at Knoxville Police,Special jurisdiction,52, , , , , ,1101 Cumberland Ave., , ,Knoxville,TN,Knox,37996, , , , ,47093,"1101 Cumberland Ave., Knoxville, TN 37996",35.9597059,-83.9252861
Transylvania County Sheriff's Office,Sheriff's office,52, , , , , ,32 E Morgan St, , ,Brevard,NC,Transylvania,28712, , , , ,37175,"32 E Morgan St, Brevard, NC 28712",35.2320045,-82.7348715
North East I.S.D. Police Dept.,Special jurisdiction,52, , , , , ,8961 Tesoro, , ,San Antonio,TX,Bexar,78217, , , , ,48029,"8961 Tesoro, San Antonio, TX 78217",29.521391,-98.456684
Texas Tech University Police Dept.,Special jurisdiction,52, , , , , ,P.O. Box 43041, , ,Lubbock,TX,Lubbock,79409, , , , ,48303,"P.O. Box 43041, Lubbock, TX 79409",33.5886439,-101.8820434
Maryville Police Department,Local police department,52, , , , , ,418 W. Broadway Ave., , ,Maryville,TN,Blount,37801, , , , ,47009,"418 W. Broadway Ave., Maryville, TN 37801",35.7516603,-83.97455769999999
Kerrville Police Department,Local police department,51, , , , , ,429 Sidney Baker, , ,Kerrville,TX,Kerr,78028, , , , ,48265,"429 Sidney Baker, Kerrville, TX 78028",30.0391882,-99.144303
Keller Police Department,Local police department,51, , , , , ,330 Rufe Snow, , ,Keller,TX,Tarrant,76248, , , , ,48439,"330 Rufe Snow, Keller, TX 76248",32.9299751,-97.2325199
Cumberland Police Department,Local police department,51, , , , , ,1509 E. Main St., , ,Cumberland,MD,Allegany,21501, , , , ,24001,"1509 E. Main St., Cumberland, MD 21501",39.6499704,-78.76004449999999
Bladen County Sheriff's Office,Sheriff's office,51, , , , , ,Po Box 396, , ,Elizabethtown,NC,Bladen,28337, , , , ,37017,"Po Box 396, Elizabethtown, NC 28337",34.6293372,-78.6052899
Gaithersburg Police Department,Local police department,51, , , , , ,14 Fulks Corner Avenue, , ,Gaithersburg,MD,Montgomery,20877, , , , ,24031,"14 Fulks Corner Avenue, Gaithersburg, MD 20877",39.1399622,-77.1954288
Edgecombe County Sheriff's Office,Sheriff's office,51, , , , , ,Po Box 219, , ,Tarboro,NC,Edgecombe,27886, , , , ,37065,"Po Box 219, Tarboro, NC 27886",35.8968236,-77.5358049
Washington Parish Sheriff's Office,Sheriff's office,51, , , , , ,Po Box 668, , ,Franklinton,LA,Washington,70438, , , , ,22117,"Po Box 668, Franklinton, LA 70438",30.8471283,-90.15314099999999
Tarrant County College District Police Dept.,Special jurisdiction,51, , , , , ,1500 Houston St., , ,Fort Worth,TX,Tarrant,76102, , , , ,48439,"1500 Houston St., Fort Worth, TX 76102",32.7474661,-97.3278753
East Carolina University Dept. of Public Safety,Special jurisdiction,51, , , , , ,609 East 10Th St., , ,Greenville,NC,Pitt,27858, , , , ,37147,"609 East 10Th St., Greenville, NC 27858",35.6053293,-77.36811639999999
United I.S.D. Police Dept.,Special jurisdiction,51, , , , , ,103 Del Mar Blvd., , ,Laredo,TX,Webb,78045, , , , ,48479,"103 Del Mar Blvd., Laredo, TX 78045",27.5685952,-99.49017029999999
Queen Anne's County Sheriff's Office,Sheriff's office,50, , , , , ,505 Railrd Ave, , ,Centreville,MD,Queen Annes,21617, , , , ,24035,"505 Railrd Ave, Centreville, MD 21617",39.0425055,-76.0607435
Assumption Parish Sheriff's Office,Sheriff's office,50, , , , , ,112 Franklin Ave,PO Box 69, ,Napoleonville,LA,Assumption,70390, , , , ,22007,"112 Franklin Ave, Napoleonville, LA 70390",29.9406845,-91.0245461
Haywood County Sheriff's Office,Sheriff's office,50, , , , , ,1620 Brown Ave, , ,Waynesville,NC,Haywood,28786, , , , ,37087,"1620 Brown Ave, Waynesville, NC 28786",35.4714361,-83.0056543
Henderson Police Department,Local police department,50, , , , , ,223 Lead Street,PO Box 95050, ,Henderson,NC,Vance,27536, , , , ,37181,"223 Lead Street, Henderson, NC 27536",36.3217481,-78.4114797
Orleans Parish Sheriff's Office (Civil Division),Sheriff's office,50, , , , , ,421 Loyola Ave Ste 403, , ,New Orleans,LA,Orleans,70112, , , , ,22071,"421 Loyola Ave Ste 403, New Orleans, LA 70112",29.951772,-90.07614559999999
Easton Police Department,Local police department,50, , , , , ,106 W. Dover Street, , ,"Easton,",MD,Talbot,21601, , , , ,24041,"106 W. Dover Street, Easton,, MD 21601",38.77406819999999,-76.07855390000002
Hoke County Sheriff's Office,Sheriff's office,50, , , , , ,429 E Central Ave,PO Drawer 300, ,Raeford,NC,Hoke,28376, , , , ,37093,"429 E Central Ave, Raeford, NC 28376",34.9791171,-79.2171378
West Feliciana Parish Sheriff's Office,Sheriff's office,50, , , , , ,4789 Prosperity St,PO Box 1844, ,Saint Francisville,LA,West Feliciana,70775, , , , ,22125,"4789 Prosperity St, Saint Francisville, LA 70775",30.7753336,-91.38640869999999
Louisiana Office of Alcohol And Tobacco Control,Special jurisdiction,50, , , , , ,Po Box 66404, , ,Baton Rouge,LA,East Baton Rouge,70896, , , , ,22033,"Po Box 66404, Baton Rouge, LA 70896",30.4514677,-91.18714659999999
Edinburg C.I.S.D. Police Dept.,Special jurisdiction,50, , , , , ,1313 E. Schunior Street, , ,Edinburg,TX,Hidalgo,78541, , , , ,48215,"1313 E. Schunior Street, Edinburg, TX 78541",26.3063733,-98.14763049999999
Albemarle Police Department,Local police department,49, , , , , ,Po Box 190, , ,Albemarle,NC,Stanly,28002, , , , ,37167,"Po Box 190, Albemarle, NC 28002",35.3481309,-80.1982494
Greenwood Police Department,Local police department,49, , , , , ,709 W Main Street, , ,Greenwood,SC,Greenwood,29648, , , , ,45047,"709 W Main Street, Greenwood, SC 29648",34.19,-82.16000000000001
Greenville Police Department,Local police department,49, , , , , ,Po Box 1109, , ,Greenville,TX,Hunt,75403, , , , ,48231,"Po Box 1109, Greenville, TX 75403",33.1390681,-96.10901299999999
Memphis International Airport Police,Special jurisdiction,49, , , , , ,"2491 Winchester Road, #113", , ,Memphis,TN,Shelby,38116, , , , ,47157,"2491 Winchester Road, #113, Memphis, TN 38116",35.0535941,-89.9908529
Stanly County Sheriff's Office,Sheriff's office,49, , , , , ,223 South 2Nd St, , ,Albemarle,NC,Stanly,28001, , , , ,37167,"223 South 2Nd St, Albemarle, NC 28001",35.3487934,-80.1974789
University of North Carolina - Chapel Hill Public Safety,Special jurisdiction,49, , , , , ,"Public Safety Bldg, Cb 1600", , ,Chapel Hill,NC,Orange,27599, , , , ,37135,"Public Safety Bldg, Cb 1600, Chapel Hill, NC 27599",35.905249,-79.0581498
Alvin Police Dept,Local police department,49, , , , , ,1500 S. Gordon St., , ,Alvin,TX,Brazoria,77511, , , , ,48039,"1500 S. Gordon St., Alvin, TX 77511",29.4109379,-95.24447740000001
Louisiana State University Health Sciences Center Police Dept,Special jurisdiction,49, , , , , ,Po Box 33932, , ,Shreveport,LA,Caddo,71130, , , , ,22017,"Po Box 33932, Shreveport, LA 71130",32.5251516,-93.7501789
North Carolina State University Dept. of Public Safety,Special jurisdiction,49, , , , , ,Box 7220, , ,Raleigh,NC,Wake,27695, , , , ,37183,"Box 7220, Raleigh, NC 27695",35.7850545,-78.68194489999999
Newberry County Sheriff's Office,Sheriff's office,48, , , , , ,Po Box 247,520 Wilson Rd, ,Newberry,SC,Newberry,29108, , , , ,45071,"Po Box 247, Newberry, SC 29108",34.2745833,-81.6187178
Polk County Sheriff's Office,Sheriff's office,48, , , , , ,Po Box 69, , ,Livingston,TX,Polk,77351, , , , ,48373,"Po Box 69, Livingston, TX 77351",30.7110216,-94.9330202
Conway Police Department,Local police department,48, , , , , ,Po Box 96, , ,Conway,SC,Horry,29528, , , , ,45051,"Po Box 96, Conway, SC 29528",33.84,-79.05
Cherokee County Sheriff's Office,Sheriff's office,48, , , , , ,111 N 5Th St, , ,Gaffney,SC,Cherokee,29340, , , , ,45021,"111 N 5Th St, Gaffney, SC 29340",35.0784427,-81.6344613
Cameron Parish Sheriff's Office,Sheriff's office,48, , , , , ,Po Box 1250, , ,Cameron,LA,Cameron,70631, , , , ,22023,"Po Box 1250, Cameron, LA 70631",29.79772119999999,-93.3251535
Beaufort County Sheriff's Office,Sheriff's office,48, , , , , ,2001 Duke St,PO Box 1758, ,Washington,NC,Beaufort,27889, , , , ,37013,"2001 Duke St, Washington, NC 27889",35.54655169999999,-77.0521742
Huntsville Police Department,Local police department,48, , , , , ,205 S Main Street, , ,Huntsville,TX,Walker,77340, , , , ,48471,"205 S Main Street, Huntsville, TX 77340",30.6875242,-95.4346682
Southlake Dept of Public Safety - Police,Local police department,48, , , , , ,2100 W. Southlake Blvd., , ,Southlake,TX,Tarrant,76092, , , , ,48439,"2100 W. Southlake Blvd., Southlake, TX 76092",32.9393541,-97.1841118
Houston Community College System,Special jurisdiction,48, , , , , ,3100 Main Room 4E 14, , ,Houston,TX,Harris,77002, , , , ,48201,"3100 Main Room 4E 14, Houston, TX 77002",29.7869086,-95.3675902
Dallas City Marshal''s Office,Constable/marshal,48, , , , , ,1600 Chestnut Street, , ,Dallas,TX,Dallas,75226, , , , ,48113,"1600 Chestnut Street, Dallas, TX 75226",32.7809091,-96.77704630000001
San Benito Police Department,Local police department,47, , , , , ,601 N. Oscar Williams Rd, , ,San Benito,TX,Cameron,78586, , , , ,48061,"601 N. Oscar Williams Rd, San Benito, TX 78586",26.1537694,-97.64434999999999
Howard County Sheriff's Office,Sheriff's office,47, , , , , ,1800 W Markland Ave, , ,Columbia,MD,Howard,21045, , , , ,24027,"1800 W Markland Ave, Columbia, MD 21045",39.2037144,-76.86104619999999
Lee County Sheriff's Office,Sheriff's office,47, , , , , ,Po Box 177, , ,Sanford,NC,Lee,27330, , , , ,37105,"Po Box 177, Sanford, NC 27330",35.555945,-79.1548533
Webster Police Department,Local police department,47, , , , , ,57 Thompson Road, , ,Webster,TX,Harris,77598, , , , ,48201,"57 Thompson Road, Webster, TX 77598",29.5377315,-95.1182645
Angelina County Sheriff's Office,Sheriff's office,46, , , , , ,2311 E Lufkin, , ,Lufkin,TX,Angelina,75901, , , , ,48005,"2311 E Lufkin, Lufkin, TX 75901",31.3376551,-94.69439
Natchitoches Police Department,Local police department,46, , , , , ,400 Amulet St., , ,Natchitoches,LA,Natchitoches,71457, , , , ,22069,"400 Amulet St., Natchitoches, LA 71457",31.758435,-93.09154889999999
Cumberland County Sheriff's Office,Sheriff's office,46, , , , , ,Po Box 56,166 Courthouse Square, ,Crossville,TN,Cumberland,38555, , , , ,47035,"Po Box 56, Crossville, TN 38555",35.9186133,-84.9609464
Jackson County Sheriff's Office,Sheriff's office,46, , , , , ,Po Box 98, , ,Sylva,NC,Jackson,28779, , , , ,37099,"Po Box 98, Sylva, NC 28779",35.3746077,-83.2133448
Lincoln Parish Sheriff's Office,Sheriff's office,46, , , , , ,Po Box 2070, , ,Ruston,LA,Lincoln,71270, , , , ,22061,"Po Box 2070, Ruston, LA 71270",32.5262454,-92.64898029999999
Aberdeen Police Department,Local police department,46, , , , , ,Po Box 190, , ,Aberdeen,MD,Harford,21001, , , , ,24025,"Po Box 190, Aberdeen, MD 21001",39.5095556,-76.16411970000001
Carteret County Sheriff's Office,Sheriff's office,46, , , , , ,304 Craven St,PO Box 239, ,Beaufort,NC,Carteret,28516, , , , ,37031,"304 Craven St, Beaufort, NC 28516",34.7194482,-76.6619365
Worcester County Sheriff's Office,Sheriff's office,46, , , , , ,One W Market St,"Room 1001,", ,Snow Hill,MD,Worcester,21863, , , , ,24047,"One W Market St, Snow Hill, MD 21863",38.1745402,-75.398187
Cambridge Police Department,Local police department,46, , , , , ,125 sixth street, , ,Cambridge,MD,Dorchester,21613, , , , ,24019,"125 sixth street, Cambridge, MD 21613",38.5632868,-76.0785791
Vance County Sheriff's Office,Sheriff's office,46, , , , , ,156 Church St Ste 004, , ,Henderson,NC,Vance,27536, , , , ,37181,"156 Church St Ste 004, Henderson, NC 27536",36.3294969,-78.4015185
Conroe I.S.D. Police Dept.,Special jurisdiction,46, , , , , ,205 E Pauline St, , ,Conroe,TX,Montgomery,77301, , , , ,48339,"205 E Pauline St, Conroe, TX 77301",30.3194287,-95.45401369999999
St. Martin Parish Sheriff's Office,Sheriff's office,45, , , , , ,Po Box 247, , ,Saint Martinville,LA,St. Martin,70582, , , , ,22099,"Po Box 247, Saint Martinville, LA 70582",30.1231441,-91.8294817
Eden Police Department,Local police department,45, , , , , ,308 B East Stadium Drive, , ,Eden,NC,Rockingham,27288, , , , ,37157,"308 B East Stadium Drive, Eden, NC 27288",36.508368,-79.71716500000001
Granville County Sheriff's Office,Sheriff's office,45, , , , , ,143 Williamsboro St, , ,Oxford,NC,Granville,27565, , , , ,37077,"143 Williamsboro St, Oxford, NC 27565",36.312525,-78.58784539999999
Kingsville Police Department,Local police department,45, , , , , ,P.O. Box 1458, , ,Kingsville,TX,Kleberg,78363, , , , ,48273,"P.O. Box 1458, Kingsville, TX 78363",27.5158689,-97.85610899999999
Kerr County Sheriff's Office,Sheriff's office,45, , , , , ,400 Clearwater Paseo, , ,Kerrville,TX,Kerr,78028, , , , ,48265,"400 Clearwater Paseo, Kerrville, TX 78028",30.0283494,-99.1256044
Grant Parish Sheriff's Office,Sheriff's office,45, , , , , ,Po Box 187, , ,Colfax,LA,Grant,71417, , , , ,22043,"Po Box 187, Colfax, LA 71417",31.5190623,-92.70681599999999
Stafford Police Department,Local police department,45, , , , , ,2702 South Main, , ,Stafford,TX,Fort Bend,77477, , , , ,48157,"2702 South Main, Stafford, TX 77477",29.6147604,-95.5554573
Dickson Police Department,Local police department,45, , , , , ,202 S. Main St., , ,Dickson,TN,Dickson,37055, , , , ,47043,"202 S. Main St., Dickson, TN 37055",36.0747232,-87.39108569999999
Hunt County Sheriff's Office,Sheriff's office,45, , , , , ,2801 Stuart St, , ,Greenville,TX,Hunt,75401, , , , ,48231,"2801 Stuart St, Greenville, TX 75401",33.1376368,-96.1047475
Denison Police Department,Local police department,45, , , , , ,108 W. Main St.,P. O. BOX 224, ,Denison,TX,Grayson,75020, , , , ,48181,"108 W. Main St., Denison, TX 75020",33.7549989,-96.5356422
Nacogdoches County Sheriff's Office,Sheriff's office,45, , , , , ,2306 Douglass Rd, , ,Nacogdoches,TX,Nacogdoches,75964, , , , ,48347,"2306 Douglass Rd, Nacogdoches, TX 75964",31.6123815,-94.680521
Bowie Police Department,Local police department,45, , , , , ,2614 Kenhill Drive, , ,Bowie,MD,Prince Georges,20715, , , , ,24033,"2614 Kenhill Drive, Bowie, MD 20715",38.96151010000001,-76.7412982
Harrison County Sheriff's Office,Sheriff's office,45, , , , , ,111 S 1St Ave, , ,Marshall,TX,Harrison,75670, , , , ,48203,"111 S 1St Ave, Marshall, TX 75670",32.5542035,-94.3570449
Cherokee Tribal Police Department,Local police department,45, , , , , ,PO Box 1330, , ,Cherokee,NC,Swain,28719, , , , ,37173,"PO Box 1330, Cherokee, NC 28719",35.4770574,-83.3205859
Kendall County Sheriff's Office,Sheriff's office,45, , , , , ,6 Staudt St, , ,Boerne,TX,Kendall,78006, , , , ,48259,"6 Staudt St, Boerne, TX 78006",29.8062467,-98.72291009999999
Davie County Sheriff's Office,Sheriff's office,45, , , , , ,140 S Main St, , ,Mocksville,NC,Davie,27028, , , , ,37059,"140 S Main St, Mocksville, NC 27028",35.8935206,-80.5614624
Gatlinburg Police Department,Local police department,45, , , , , ,P.O. Box 5, , ,Gatlinburg,TN,Sevier,37738, , , , ,47155,"P.O. Box 5, Gatlinburg, TN 37738",35.6806515,-83.6494
Greeneville Police Department,Local police department,45, , , , , ,200 N. College St., , ,Greeneville,TN,Greene,37745, , , , ,47059,"200 N. College St., Greeneville, TN 37745",36.1638249,-82.8281654
Dallas County Constable Pct. 2,Constable/marshal,45, , , , , ,140 N. Garland Ave, , ,Garland,TX,Dallas,75040, , , , ,48113,"140 N. Garland Ave, Garland, TX 75040",32.9131969,-96.6470255
El Mirage Police Department,Local police department,45, , , , , ,P.O. Box 26, , ,El Mirage,AZ,Maricopa,85335, , , , ,4013,"P.O. Box 26, El Mirage, AZ 85335",33.5994927,-112.3218553
Natchitoches Parish Sheriff's Office,Sheriff's office,45, , , , , ,Po Box 266,200 Church St, ,Natchitoches,LA,Natchitoches,71458, , , , ,22069,"Po Box 266, Natchitoches, LA 71458",31.76182309999999,-93.0882876
Tarrant County Hospital District Police Dept.,Special jurisdiction,45, , , , , ,1500 S. Main St., , ,Fort Worth,TX,Tarrant,76104, , , , ,48439,"1500 S. Main St., Fort Worth, TX 76104",32.7271611,-97.32703959999999
Denison City Marshal,Constable/marshal,45, , , , , ,500 West Chestnut, , ,Denison,TX,Grayson,75020, , , , ,48181,"500 West Chestnut, Denison, TX 75020",33.7542402,-96.54177020000002
Cornelius Police Department,Local police department,44, , , , , ,P.O. Pox 399, , ,Cornelius,NC,Mecklenburg,28031, , , , ,37119,"P.O. Pox 399, Cornelius, NC 28031",35.472468,-80.8875861
Schertz Police Department,Local police department,44, , , , , ,1404 Schertz Parkway, , ,Schertz,TX,Guadalupe,78154, , , , ,48187,"1404 Schertz Parkway, Schertz, TX 78154",29.5651533,-98.2701596
Watauga County Sheriff's Office,Sheriff's office,44, , , , , ,184 Hodges Gap Rd, , ,Boone,NC,Watauga,28607, , , , ,37189,"184 Hodges Gap Rd, Boone, NC 28607",36.2209115,-81.7068518
Macon County Sheriff's Office,Sheriff's office,44, , , , , ,1820 Lakeside Dr, , ,Franklin,NC,Macon,28734, , , , ,37113,"1820 Lakeside Dr, Franklin, NC 28734",35.1977752,-83.3718513
Lake Jackson Police Department,Local police department,44, , , , , ,5A Oak Drive, , ,Lake Jackson,TX,Brazoria,77566, , , , ,48039,"5A Oak Drive, Lake Jackson, TX 77566",29.0370899,-95.4491541
Robertson County Sheriff's Office,Sheriff's office,44, , , , , ,507 S Brown St, , ,Springfield,TN,Robertson,37172, , , , ,47147,"507 S Brown St, Springfield, TN 37172",36.5078713,-86.8807124
Clarendon County Sheriff's Office,Sheriff's office,44, , , , , ,Po Box 1289, , ,Manning,SC,Clarendon,29102, , , , ,45027,"Po Box 1289, Manning, SC 29102",33.6951627,-80.2109134
Reidsville Police Department,Local police department,44, , , , , ,220 W. Morehead Street, , ,Reidsville,NC,Rockingham,27320, , , , ,37157,"220 W. Morehead Street, Reidsville, NC 27320",36.3618974,-79.6649896
Zapata County Sheriff's Office,Sheriff's office,44, , , , , ,2311 Stop23A,7th Ave & Hidalgo Blvd, ,Zapata,TX,Zapata,78076, , , , ,48505,"2311 Stop23A, Zapata, TX 78076",26.9072605,-99.27142549999999
Chambers County Sheriff's Office,Sheriff's office,44, , , , , ,2 Lafayette St, , ,Anahuac,TX,Chambers,77514, , , , ,48071,"2 Lafayette St, Anahuac, TX 77514",29.7730001,-94.6826961
Lavergne Police Department,Local police department,44, , , , , ,5093 Murfreesboro Rd., , ,Lavergne,TN,Rutherford,37086, , , , ,47149,"5093 Murfreesboro Rd., Lavergne, TN 37086",36.022115,-86.5802677
Harker Heights Police Department,Local police department,44, , , , , ,402 Indian Trail, , ,Harker Heights,TX,Bell,76548, , , , ,48027,"402 Indian Trail, Harker Heights, TX 76548",31.0822607,-97.657884
Fairfield County Sheriff's Office,Sheriff's office,44, , , , , ,221 E Main St, , ,Winnsboro,SC,Fairfield,29180, , , , ,45039,"221 E Main St, Winnsboro, SC 29180",33.6310171,-82.2677003
Harbor Police - Port of New Orleans,Special jurisdiction,44, , , , , ,#1 Third St., , ,New Orleans,LA,Orleans,70130, , , , ,22071,"#1 Third St., New Orleans, LA 70130",29.9363572,-90.0876749
Katy Police Department,Local police department,43, , , , , ,5456 Franz Rd., , ,Katy,TX,Harris,77493, , , , ,48201,"5456 Franz Rd., Katy, TX 77493",29.8019296,-95.8196682
Hyattsville Police Department,Local police department,43, , , , , ,4310 Gallatin St., , ,Hyattsville,MD,Prince Georges,20781, , , , ,24033,"4310 Gallatin St., Hyattsville, MD 20781",38.9529556,-76.9418453
Santa Cruz County Sheriff's Office,Sheriff's office,43, , , , , ,1250 N Hohokam Dr,Box 1150, ,Nogales,AZ,Santa Cruz,85621, , , , ,4023,"1250 N Hohokam Dr, Nogales, AZ 85621",31.3553982,-110.9278601
Hood County Sheriff's Office,Sheriff's office,43, , , , , ,400 N. Gordon St., , ,Granbury,TX,Hood,76048, , , , ,48221,"400 N. Gordon St., Granbury, TX 76048",32.4488736,-97.7905758
Lawrence County Sheriff's Office,Sheriff's office,43, , , , , ,430 Court St, , ,Lawrenceburg,TN,Lawrence,38464, , , , ,47099,"430 Court St, Lawrenceburg, TN 38464",35.3208843,-87.5000082
Easley Police Department,Local police department,43, , , , , ,Po Box 466, , ,Easley,SC,Pickens,29641, , , , ,45077,"Po Box 466, Easley, SC 29641",34.83,-82.60000000000001
Mauldin Police Department,Local police department,43, , , , , ,Po Box 249, , ,Mauldin,SC,Greenville,29662, , , , ,45045,"Po Box 249, Mauldin, SC 29662",34.7817994,-82.3044871
Beaufort Police Department,Local police department,43, , , , , ,Po Box 268, , ,Beaufort,SC,Beaufort,29901, , , , ,45013,"Po Box 268, Beaufort, SC 29901",32.4336621,-80.67284560000002
Southern University and A & M College Police,Special jurisdiction,43, , , , , ,Southern University System, , ,Baton Rouge,LA,East Baton Rouge,70813, , , , ,22033,"Southern University System, Baton Rouge, LA 70813",30.52352,-91.19530999999999
Dallas County Constable Pct. 3,Constable/marshal,43, , , , , ,1411 W. Belt Line Road, , ,Richardson,TX,Dallas,75080, , , , ,48113,"1411 W. Belt Line Road, Richardson, TX 75080",32.950881,-96.766654
McAllen I.S.D. Police Dept.,Special jurisdiction,43, , , , , ,2000 N. 23Rd, , ,Mcallen,TX,Hidalgo,78501, , , , ,48215,"2000 N. 23Rd, Mcallen, TX 78501",26.223706,-98.2417125
Maverick County Sheriff's Office,Sheriff's office,42, , , , , ,"Rt 3, Box 1033, Hwy 57", , ,Eagle Pass,TX,Maverick,78852, , , , ,48323,"Rt 3, Box 1033, Hwy 57, Eagle Pass, TX 78852",28.7091433,-100.4995214
Millington Police Department,Local police department,42, , , , , ,7950 Memphis Avenue, , ,Millington,TN,Shelby,38053, , , , ,47157,"7950 Memphis Avenue, Millington, TN 38053",35.3433885,-89.86797969999999
San Patricio County Sheriff's Office,Sheriff's office,42, , , , , ,300 N Rachal St,PO Box 1382, ,Sinton,TX,San Patricio,78387, , , , ,48409,"300 N Rachal St, Sinton, TX 78387",28.0397965,-97.509633
La Salle Parish Sheriff's Office,Sheriff's office,42, , , , , ,Po Box 70, , ,Jena,LA,La Salle,71342, , , , ,22059,"Po Box 70, Jena, LA 71342",31.6832271,-92.1337448
Westminster Police Department,Local police department,42, , , , , ,"P.O. Box 300, 36 Locust St.", , ,Westminster,MD,Carroll,21158, , , , ,24013,"P.O. Box 300, 36 Locust St., Westminster, MD 21158",39.5759194,-76.9931
Hawkins County Sheriff's Office,Sheriff's office,42, , , , , ,150 E Washington St, , ,Rogersville,TN,Hawkins,37857, , , , ,47073,"150 E Washington St, Rogersville, TN 37857",36.4064916,-83.006222
Clayton Police Department,Local police department,42, , , , , ,227 S Central Ave, , ,Clayton,NC,Johnston,27520, , , , ,37101,"227 S Central Ave, Clayton, NC 27520",35.650711,-78.4563914
Dallas County Constable Pct. 5,Constable/marshal,42, , , , , ,410 S. Beckley,410 S. Beckley, ,Dallas,TX,Dallas,75203, , , , ,48113,"410 S. Beckley, Dallas, TX 75203",32.7423999,-96.8226622
Sahuarita Police Dept,Local police department,42, , , , , ,315 W. Sahuarita Center Way, , ,Sahuarita,AZ,Pima,85629, , , , ,4019,"315 W. Sahuarita Center Way, Sahuarita, AZ 85629",31.9563724,-110.9749478
Lone Star College System Police Department,Special jurisdiction,42, , , , , ,5000 Research Forest Drive, , ,The Woodlands,TX,Montgomery,77381, , , , ,48339,"5000 Research Forest Drive, The Woodlands, TX 77381",30.1874018,-95.48804109999999
Montgomery County Sheriff's Office,Sheriff's office,42, , , , , ,Po Box 432,200 Clark Dr, ,Troy,NC,Montgomery,27371, , , , ,37123,"Po Box 432, Troy, NC 27371",35.3584743,-79.8944901
Mount Juliet Police Department,Local police department,41, , , , , ,P.O. Box 322, , ,Mount Juliet,TN,Wilson,37122, , , , ,47189,"P.O. Box 322, Mount Juliet, TN 37122",36.200055,-86.5186054
Jefferson County Sheriff's Office,Sheriff's office,41, , , , , ,16001 State Route 7, , ,Dandridge,TN,Jefferson,37725, , , , ,47089,"16001 State Route 7, Dandridge, TN 37725",36.0153693,-83.4148895
Sulphur Police Department,Local police department,41, , , , , ,Po Box 1309, , ,Sulphur,LA,Calcasieu,70664, , , , ,22019,"Po Box 1309, Sulphur, LA 70664",30.2317874,-93.3507801
Person County Sheriff's Office,Sheriff's office,41, , , , , ,Po Box 1156, , ,Roxboro,NC,Person,27573, , , , ,37145,"Po Box 1156, Roxboro, NC 27573",36.4094786,-78.9627624
Carter County Sheriff's Office,Sheriff's office,41, , , , , ,Po Box 323, , ,Elizabethton,TN,Carter,37643, , , , ,47019,"Po Box 323, Elizabethton, TN 37643",36.3485334,-82.2136251
Takoma Park Police Department,Local police department,41, , , , , ,7500 Maple Ave, , ,Takoma Park,MD,Montgomery,20912, , , , ,24031,"7500 Maple Ave, Takoma Park, MD 20912",38.9816012,-77.01047489999999
Seguin Police Department,Local police department,41, , , , , ,350 N. Guadalupe Street, , ,Seguin,TX,Guadalupe,78155, , , , ,48187,"350 N. Guadalupe Street, Seguin, TX 78155",29.5714634,-97.9698966
Westwego Police Department,Local police department,41, , , , , ,417 Ave A, , ,Westwego,LA,Jefferson,70094, , , , ,22051,"417 Ave A, Westwego, LA 70094",29.91147029999999,-90.143549
Crossville Police Department,Local police department,41, , , , , ,Post Office Box 100, , ,Crossville,TN,Cumberland,38555, , , , ,47035,"Post Office Box 100, Crossville, TN 38555",35.9186133,-84.9609464
Chesterfield County Sheriff's Office,Sheriff's office,41, , , , , ,Po Box 7,9500 Courthouse Rd, ,Chesterfield,SC,Chesterfield,29709, , , , ,45025,"Po Box 7, Chesterfield, SC 29709",34.7359889,-80.0881194
Shelbyville Police Department,Local police department,41, , , , , ,303 Main St., , ,Shelbyville,TN,Bedford,37160, , , , ,47003,"303 Main St., Shelbyville, TN 37160",35.4845644,-86.4600168
Smithfield Police Department,Local police department,41, , , , , ,215 Pleasant View Avenue, , ,Smithfield,NC,Johnston,27577, , , , ,37101,"215 Pleasant View Avenue, Smithfield, NC 27577",35.5084935,-78.3394455
Lexington Police Department,Local police department,41, , , , , ,1575 Massachusetts Avenue, , ,Lexington,SC,Lexington,29071, , , , ,45063,"1575 Massachusetts Avenue, Lexington, SC 29071",33.9815369,-81.2362107
Wylie Police Department,Local police department,41, , , , , ,2000 N.  Hwy 78, , ,Wylie,TX,Collin,75098, , , , ,48085,"2000 N.  Hwy 78, Wylie, TX 75098",33.024215,-96.5147068
Aldine I.S.D Police Dept.,Special jurisdiction,41, , , , , ,14910 Aldine-Meadows Road, , ,Houston,TX,Harris,77032, , , , ,48201,"14910 Aldine-Meadows Road, Houston, TX 77032",29.9349378,-95.361598
Pasquotank County Sheriff's Office,Sheriff's office,40, , , , , ,Po Box 587, , ,Elizabeth City,NC,Pasquotank,27907, , , , ,37139,"Po Box 587, Elizabeth City, NC 27907",36.3,-76.22
El Paso I.S.D. Police Dept.,Special jurisdiction,40, , , , , ,6531 Boeing Dr, , ,El Paso,TX,El Paso,79925, , , , ,48141,"6531 Boeing Dr, El Paso, TX 79925",31.7925182,-106.3986461
McDowell County Sheriff's Office,Sheriff's office,40, , , , , ,90 Wyoming St Ste 117, , ,Marion,NC,McDowell,28752, , , , ,37111,"90 Wyoming St Ste 117, Marion, NC 28752",35.6840131,-82.00927449999999
San Juan Police Department,Local police department,40, , , , , ,2301 N. Raul Longoria, , ,San Juan,TX,Hidalgo,78589, , , , ,48215,"2301 N. Raul Longoria, San Juan, TX 78589",26.2178708,-98.1500633
Bellaire Police Department,Local police department,40, , , , , ,5110 Jessamine St, , ,Bellaire,TX,Harris,77401, , , , ,48201,"5110 Jessamine St, Bellaire, TX 77401",29.7023011,-95.46878129999999
Benbrook Police Department,Local police department,40, , , , , ,1080 Mercedes, , ,Benbrook,TX,Tarrant,76126, , , , ,48439,"1080 Mercedes, Benbrook, TX 76126",32.6785105,-97.450768
Covington Police Department,Local police department,40, , , , , ,One Police Memorial Dr., , ,Covington,LA,St. Tammany,70434, , , , ,22103,"One Police Memorial Dr., Covington, LA 70434",30.4754702,-90.1009108
Big Spring Police Department,Local police department,40, , , , , ,400 E. 4Th St, , ,Big Springs,TX,Howard,79720, , , , ,48227,"400 E. 4Th St, Big Springs, TX 79720",32.2527709,-101.4725434
University Park Police Department,Local police department,40, , , , , ,6724 Baltimore Avenue, , ,University Park,TX,Dallas,75205, , , , ,48113,"6724 Baltimore Avenue, University Park, TX 75205",32.8498049,-96.79613979999999
Webster Parish Sheriff's Office,Sheriff's office,40, , , , , ,Po Box 877,410 Main St, ,Minden,LA,Webster,71058, , , , ,22119,"Po Box 877, Minden, LA 71058",32.6160847,-93.2886169
University of North Texas Police Department,Special jurisdiction,40, , , , , ,1700 Wilshire Street, , ,Denton,TX,Denton,76201, , , , ,48121,"1700 Wilshire Street, Denton, TX 76201",33.2061504,-97.1515766
Wharton County Sheriff's Office,Sheriff's office,40, , , , , ,Po Box 726,315 E Elm, ,Wharton,TX,Wharton,77488, , , , ,48481,"Po Box 726, Wharton, TX 77488",29.3116366,-96.1027371
Alcoa Police Department,Local police department,40, , , , , ,2020 N. Wright Road, , ,Alcoa,TN,Blount,37701, , , , ,47009,"2020 N. Wright Road, Alcoa, TN 37701",35.8087132,-83.97616239999999
Tomball Police Department,Local police department,40, , , , , ,400 Fannin St., , ,Tomball,TX,Harris,77375, , , , ,48201,"400 Fannin St., Tomball, TX 77375",30.0954719,-95.61666129999999
Warren County Sheriff's Office,Sheriff's office,40, , , , , ,121 N A St, , ,Mc Minnville,TN,Warren,37110, , , , ,47177,"121 N A St, Mc Minnville, TN 37110",35.6214097,-85.7256372
Towson University Police,Special jurisdiction,39, , , , , ,8000 York Road,Towson University Police, ,Baltimore,MD,Baltimore,21252, , , , ,24005,"8000 York Road, Baltimore, MD 21252",39.3948753,-76.6053422
Tullahoma Police Department,Local police department,39, , , , , ,P.O. Box 807, , ,Tullahoma,TN,Coffee,37388, , , , ,47031,"P.O. Box 807, Tullahoma, TN 37388",35.3620235,-86.20943419999999
Wichita County Sheriff's Office,Sheriff's office,39, , , , , ,Po Box 8466, , ,Wichita Falls,TX,Wichita,76307, , , , ,48485,"Po Box 8466, Wichita Falls, TX 76307",33.9099999,-98.49
Bowie County Sheriff's Office,Sheriff's office,39, , , , , ,100 N State Line Ave Box #18, , ,Texarkana,TX,Bowie,75501, , , , ,48037,"100 N State Line Ave Box #18, Texarkana, TX 75501",33.4208569,-94.0431833
Stokes County Sheriff's Office,Sheriff's office,39, , , , , ,Po Box 118, , ,Danbury,NC,Stokes,27016, , , , ,37169,"Po Box 118, Danbury, NC 27016",36.4093079,-80.2062143
Carrboro Police Department,Local police department,39, , , , , ,"100 N Greensboro St #514, Pob 829", , ,Carrboro,NC,Orange,27510, , , , ,37135,"100 N Greensboro St #514, Pob 829, Carrboro, NC 27510",35.9106535,-79.0719998
Anderson County Sheriff's Office,Sheriff's office,39, , , , , ,141 S Main St, , ,Palestine,TX,Anderson,75801, , , , ,48001,"141 S Main St, Palestine, TX 75801",31.7623877,-95.6310821
Laurinburg Police Department,Local police department,39, , , , , ,Po Box 909, , ,Laurinburg,NC,Scotland,28353, , , , ,37165,"Po Box 909, Laurinburg, NC 28353",34.77,-79.4599999
Rusk County Sheriff's Office,Sheriff's office,39, , , , , ,210 Charlevioux St, , ,Henderson,TX,Rusk,75652, , , , ,48401,"210 Charlevioux St, Henderson, TX 75652",32.1551923,-94.80047619999999
Alief I.S.D Police Dept.,Special jurisdiction,39, , , , , ,P. O. Box 68, , ,Alief,TX,Harris,77411, , , , ,48201,"P. O. Box 68, Alief, TX 77411",29.703739,-95.58787199999999
Dallas County Constable Pct. 4,Constable/marshal,39, , , , , ,630 W. Main St., , ,Grand Prairie,TX,Dallas,75050, , , , ,48113,"630 W. Main St., Grand Prairie, TX 75050",32.744308,-97.01173650000001
Holly Springs Public Safety,Local police department,38, , , , , ,Po Box 8, , ,Holly Springs,NC,Wake,27540, , , , ,37183,"Po Box 8, Holly Springs, NC 27540",35.6512655,-78.8336218
Springfield Police Department,Local police department,38, , , , , ,Po Box 31, , ,Springfield,TN,Robertson,37172, , , , ,47147,"Po Box 31, Springfield, TN 37172",36.5092118,-86.8849984
Saginaw Police Department,Local police department,38, , , , , ,505 West Mcleroy Blvd., , ,Saginaw,TX,Tarrant,76179, , , , ,48439,"505 West Mcleroy Blvd., Saginaw, TX 76179",32.8579638,-97.37185989999999
Crowley Police Department,Local police department,38, , , , , ,Po Box 436, , ,Crowley,LA,Acadia,70526, , , , ,22001,"Po Box 436, Crowley, LA 70526",30.2070204,-92.3616203
Apache County Sheriff's Office,Sheriff's office,38, , , , , ,Po Box 518, , ,Saint Johns,AZ,Apache,85936, , , , ,4001,"Po Box 518, Saint Johns, AZ 85936",34.5058698,-109.3609327
Morehead City Police Department,Local police department,38, , , , , ,202 S. 8Th St.,PO Drawer M, ,Morehead City,NC,Carteret,28557, , , , ,37031,"202 S. 8Th St., Morehead City, NC 28557",34.7202321,-76.7130437
Hendersonville Police Department,Local police department,38, , , , , ,Po Box 1670, , ,Hendersonville,NC,Henderson,28792, , , , ,37089,"Po Box 1670, Hendersonville, NC 28792",35.3187279,-82.4609528
Austin County Sheriff's Office,Sheriff's office,38, , , , , ,417 N Chesley St, , ,Bellville,TX,Austin,77418, , , , ,48015,"417 N Chesley St, Bellville, TX 77418",29.9578573,-96.2634008
Mount Airy Police Department,Local police department,38, , , , , ,Po Box 1244, , ,Mount Airy,NC,Surry,27030, , , , ,37171,"Po Box 1244, Mount Airy, NC 27030",36.4999641,-80.6053793
Hidalgo Police Department,Local police department,38, , , , , ,211 E Esperanza, , ,Hidalgo,TX,Hidalgo,78557, , , , ,48215,"211 E Esperanza, Hidalgo, TX 78557",26.1002465,-98.2602573
Abbeville Police Department,Local police department,38, , , , , ,304 Charity St., , ,Abbveille,LA,Vermilion,70510, , , , ,22113,"304 Charity St., Abbveille, LA 70510",29.9733609,-92.1332065
Boone Police Department,Local police department,38, , , , , ,Po Drawer 192, , ,Boone,NC,Watauga,28607, , , , ,37189,"Po Drawer 192, Boone, NC 28607",36.203966,-81.7046702
Roanoke Rapids Police Department,Local police department,38, , , , , ,Po Box 38, , ,Roanoke Rapids,NC,Halifax,27870, , , , ,37083,"Po Box 38, Roanoke Rapids, NC 27870",36.4260215,-77.7223162
Elkton Police Department,Local police department,38, , , , , ,P.O. Box 578, , ,Elkton,MD,Cecil,21921, , , , ,24015,"P.O. Box 578, Elkton, MD 21921",39.6149526,-75.835064
Goodlettsville Police Department,Local police department,38, , , , , ,105 S. Main St., , ,Goodlettsville,TN,Davidson,37072, , , , ,47037,"105 S. Main St., Goodlettsville, TN 37072",36.3221653,-86.71436709999999
Williamsburg County Sheriff's Office,Sheriff's office,38, , , , , ,126 Jackson St,PO Box 179, ,Kingstree,SC,Williamsburg,29556, , , , ,45089,"126 Jackson St, Kingstree, SC 29556",33.6623111,-79.831671
Morehouse Parish Sheriff's Office,Sheriff's office,38, , , , , ,351 S Franklin St, , ,Bastrop,LA,Morehouse,71220, , , , ,22067,"351 S Franklin St, Bastrop, LA 71220",32.7757553,-91.9127942
Brownwood Police Department,Local police department,38, , , , , ,1050 W. Commerce, , ,Brownwood,TX,Brown,76801, , , , ,48049,"1050 W. Commerce, Brownwood, TX 76801",31.7252425,-99.00404619999999
Bogalusa Police Department,Local police department,37, , , , , ,214 Arkansas Ave, , ,Bogalusa,LA,Washington,70427, , , , ,22117,"214 Arkansas Ave, Bogalusa, LA 70427",30.7861446,-89.8605565
Corsicana Police Department,Local police department,37, , , , , ,200 North 12Th., , ,Corsicana,TX,Navarro,75110, , , , ,48349,"200 North 12Th., Corsicana, TX 75110",32.0934653,-96.46724859999999
Spring Hill Police Department,Local police department,37, , , , , ,P.O. Box 789, , ,Spring Hill,TN,Maury,37174, , , , ,47119,"P.O. Box 789, Spring Hill, TN 37174",35.72228630000001,-86.8822445
Dunn Police Department,Local police department,37, , , , , ,Po Box 1065, , ,Dunn,NC,Harnett,28334, , , , ,37085,"Po Box 1065, Dunn, NC 28334",35.3062743,-78.6089028
Gainesville Police Department,Local police department,37, , , , , ,201 Santa Fe St., , ,Gainesville,TX,Cooke,76240, , , , ,48097,"201 Santa Fe St., Gainesville, TX 76240",33.6418596,-97.1469075
Baker Police Department,Local police department,37, , , , , ,Po Box 389, , ,Baker,LA,East Baton Rouge,70714, , , , ,22033,"Po Box 389, Baker, LA 70714",30.5882429,-91.16816299999999
Claiborne Parish Sheriff's Office,Sheriff's office,37, , , , , ,613 E Main St, , ,Homer,LA,Claiborne,71040, , , , ,22027,"613 E Main St, Homer, LA 71040",32.79295159999999,-93.0548936
Alice Police Department,Local police department,37, , , , , ,415 East Main, , ,Alice,TX,Jim Wells,78332, , , , ,48249,"415 East Main, Alice, TX 78332",27.7503915,-98.07268959999999
Uvalde Police Department,Local police department,37, , , , , ,P. O. Box 799, , ,Uvalde,TX,Uvalde,78802, , , , ,48463,"P. O. Box 799, Uvalde, TX 78802",29.1405641,-100.0191857
Rockwall County Sheriff's Office,Sheriff's office,37, , , , , ,972 T L Townsend Dr, , ,Rockwall,TX,Rockwall,75087, , , , ,48397,"972 T L Townsend Dr, Rockwall, TX 75087",32.919874,-96.453448
Angleton Police Department,Local police department,37, , , , , ,104 Cannan Dr., , ,Angleton,TX,Brazoria,77515, , , , ,48039,"104 Cannan Dr., Angleton, TX 77515",29.1818491,-95.43003949999999
Roane County Sheriff's Office,Sheriff's office,37, , , , , ,200 Main St, , ,Kingston,TN,Roane,37763, , , , ,47145,"200 Main St, Kingston, TN 37763",35.8809084,-84.5085447
Gaffney Police Department,Local police department,37, , , , , ,Po Box 2109, , ,Gaffney,SC,Cherokee,29342, , , , ,45021,"Po Box 2109, Gaffney, SC 29342",35.07317,-81.65133
Liberty County Sheriff's Office,Sheriff's office,37, , , , , ,Po Box 170,111 1/2 E Adams, ,Liberty,TX,Liberty,77575, , , , ,48291,"Po Box 170, Liberty, TX 77575",30.057993,-94.7954783
Charlotte Douglas International Airport Police,Special jurisdiction,37, , , , , ,Po Box 19066, , ,Charlotte,NC,Mecklenburg,28219, , , , ,37119,"Po Box 19066, Charlotte, NC 28219",35.2270869,-80.8431267
Waller County Sheriff's Office,Sheriff's office,37, , , , , ,701 Calvit St, , ,Hempstead,TX,Waller,77445, , , , ,48473,"701 Calvit St, Hempstead, TX 77445",30.1023564,-96.0753246
McMinnville Police Department,Local police department,36, , , , , ,P.O. Box 7088, , ,McMinnville,TN,Warren,37111, , , , ,47177,"P.O. Box 7088, McMinnville, TN 37111",35.69,-85.78
Monroe County Sheriff's Office,Sheriff's office,36, , , , , ,301 N College Ave,Justice Building, ,Madisonville,TN,Monroe,37354, , , , ,47123,"301 N College Ave, Madisonville, TN 37354",35.5211302,-84.3632322
Union City Police Department,Local police department,36, , , , , ,P.O. Box 9, , ,Union City,TN,Obion,38261, , , , ,47131,"P.O. Box 9, Union City, TN 38261",36.4224953,-89.0579679
Ruston Police Department,Local police department,36, , , , , ,5117 N Winnifred Street,5219 N SHIRLEY STREET, ,Ruston,LA,Lincoln,71273, , , , ,22061,"5117 N Winnifred Street, Ruston, LA 71273",32.5232053,-92.63792699999999
Washington Police Department,Local police department,36, , , , , ,Po Box 605, , ,Washington,NC,Beaufort,27889, , , , ,37013,"Po Box 605, Washington, NC 27889",35.5512023,-77.05956460000002
Bennettsville Police Department,Local police department,36, , , , , ,Po Box 557, , ,Bennettsville,SC,Marlboro,29512, , , , ,45069,"Po Box 557, Bennettsville, SC 29512",34.6173803,-79.68478139999999
Dorchester County Sheriff's Office,Sheriff's office,36, , , , , ,100 Sears St, , ,Cambridge,MD,Dorchester,21613, , , , ,24019,"100 Sears St, Cambridge, MD 21613",38.5632868,-76.0785791
La Paz County Sheriff's Office,Sheriff's office,36, , , , , ,1109 W Arizona Ave, , ,Parker,AZ,La Paz,85344, , , , ,4012,"1109 W Arizona Ave, Parker, AZ 85344",34.1455578,-114.2904066
Spring I.S.D. Police Dept.,Special jurisdiction,36, , , , , ,210 North Forest Blvd., , ,Houston,TX,Harris,77090, , , , ,48201,"210 North Forest Blvd., Houston, TX 77090",30.0063971,-95.4293222
Texas Southern University Police Dept.,Special jurisdiction,36, , , , , ,3100 Cleburne, , ,Houston,TX,Harris,77004, , , , ,48201,"3100 Cleburne, Houston, TX 77004",29.7209701,-95.359957
Katy I.S.D. Police Dept.,Special jurisdiction,36, , , , , ,20370 Franz Road, , ,Katy,TX,Harris,77449, , , , ,48201,"20370 Franz Road, Katy, TX 77449",29.8020905,-95.73981219999999
Bastrop Police Department,Local police department,35, , , , , ,202 E. Jefferson St., , ,Bastrop,LA,Morehouse,71220, , , , ,22067,"202 E. Jefferson St., Bastrop, LA 71220",32.7785879,-91.9165958
Kilgore Police Department,Local police department,35, , , , , ,P.O. Box 3066, , ,Kilgore,TX,Gregg,75663, , , , ,48183,"P.O. Box 3066, Kilgore, TX 75663",32.3891032,-94.87289559999999
Simpsonville Police Department,Local police department,35, , , , , ,P.O. Box 378, , ,Simpsonville,SC,Greenville,29681, , , , ,45045,"P.O. Box 378, Simpsonville, SC 29681",34.7370639,-82.25428339999999
Bedford County Sheriff's Office,Sheriff's office,35, , , , , ,1345 Falling Creek Rd, , ,Shelbyville,TN,Bedford,37160, , , , ,47003,"1345 Falling Creek Rd, Shelbyville, TN 37160",35.483406,-86.46027169999999
Havre De Grace Police Department,Local police department,35, , , , , ,715 Pennington Avenue, , ,Havre De Grace,MD,Harford,21078, , , , ,24025,"715 Pennington Avenue, Havre De Grace, MD 21078",39.5489313,-76.0965346
Balch Springs Police Department,Local police department,35, , , , , ,12500 Elam Rd., , ,Balch Springs,TX,Dallas,75180, , , , ,48113,"12500 Elam Rd., Balch Springs, TX 75180",32.71887299999999,-96.610948
Bay City Police Department,Local police department,35, , , , , ,501 Third St, , ,Bay City,TX,Matagorda,77414, , , , ,48321,"501 Third St, Bay City, TX 77414",28.9783161,-95.9832623
Georgetown Police Department,Local police department,35, , , , , ,108 East State Street, , ,Georgetown,SC,Georgetown,29440, , , , ,45043,"108 East State Street, Georgetown, SC 29440",33.376834,-79.2944964
Elizabethton Police Department,Local police department,35, , , , , ,136 S. Sycamore St., , ,Elizabethton,TN,Carter,37643, , , , ,47019,"136 S. Sycamore St., Elizabethton, TN 37643",36.3470778,-82.21404369999999
Rockingham Police Department,Local police department,35, , , , , ,Po Box 506, , ,Rockingham,NC,Richmond,28380, , , , ,37153,"Po Box 506, Rockingham, NC 28380",34.94,-79.77
Yadkin County Sheriff's Office,Sheriff's office,35, , , , , ,Po Box 443, , ,Yadkinville,NC,Yadkin,27055, , , , ,37197,"Po Box 443, Yadkinville, NC 27055",36.1345807,-80.6595079
Lancaster Police Department,Local police department,35, , , , , ,25 Main Street, , ,Lancaster,SC,Lancaster,29721, , , , ,45057,"25 Main Street, Lancaster, SC 29721",34.7284375,-80.7752955
Bluffton Police Department,Local police department,35, , , , , ,154 N. Main Street, , ,Bluffton,SC,Beaufort,29910, , , , ,45013,"154 N. Main Street, Bluffton, SC 29910",32.216641,-80.7217345
Morgan State University Police,Special jurisdiction,35, , , , , ,1700 E Cold Spring Lane, , ,Baltimore,MD,Baltimore City,21251, , , , ,24510,"1700 E Cold Spring Lane, Baltimore, MD 21251",39.34629109999999,-76.5832995
Terrell Police Department,Local police department,35, , , , , ,201 E. Nash Street, , ,Terrell,TX,Kaufman,75160, , , , ,48257,"201 E. Nash Street, Terrell, TX 75160",32.7376148,-96.2754744
Arizona Department of Gaming,Special jurisdiction,35, , , , , ,202 E. Earll Dr,Ste 200, ,Phoenix,AZ,Maricopa,85012, , , , ,4013,"202 E. Earll Dr, Phoenix, AZ 85012",33.48421039999999,-112.0714369
El Paso Community College Police Dept.,Special jurisdiction,35, , , , , ,P. O. Box 20500, , ,El Paso,TX,El Paso,79998, , , , ,48141,"P. O. Box 20500, El Paso, TX 79998",31.77,-106.43
Stephenville Police Department,Local police department,34, , , , , ,356 N. Belknap, , ,Stephenville,TX,Erath,76401, , , , ,48143,"356 N. Belknap, Stephenville, TX 76401",32.2218265,-98.2042613
Ennis Police Department,Local police department,34, , , , , ,119 W Brown, , ,Ennis,TX,Ellis,75119, , , , ,48139,"119 W Brown, Ennis, TX 75119",32.3264577,-96.6271129
Matagorda County Sheriff's Office,Sheriff's office,34, , , , , ,2308 Ave F, , ,Bay City,TX,Matagorda,77414, , , , ,48321,"2308 Ave F, Bay City, TX 77414",28.980034,-95.970329
Franklin County Sheriff's Office,Sheriff's office,34, , , , , ,157 Lincoln Way E, , ,Winchester,TN,Franklin,37398, , , , ,47051,"157 Lincoln Way E, Winchester, TN 37398",35.1859163,-86.11220709999999
Seneca Police Department,Local police department,34, , , , , ,Po Box 4773, , ,Seneca,SC,Oconee,29679, , , , ,45073,"Po Box 4773, Seneca, SC 29679",34.69,-82.95
Martin County Sheriff's Office,Sheriff's office,34, , , , , ,Po Box 180,Capitol Ave, ,Williamston,NC,Martin,27892, , , , ,37117,"Po Box 180, Williamston, NC 27892",35.8546039,-77.0555114
Clinton Police Department,Local police department,34, , , , , ,322 East Michigan Ave, , ,Clinton,NC,Sampson,28329, , , , ,37163,"322 East Michigan Ave, Clinton, NC 28329",34.9979453,-78.32333249999999
Union Public Safety Department,Local police department,34, , , , , ,215 Thompson Blvd, , ,Union,SC,Union,29379, , , , ,45087,"215 Thompson Blvd, Union, SC 29379",34.7227789,-81.6276972
Plainview Police Department,Local police department,34, , , , , ,241 W. Broadway, , ,Plainview,TX,Hale,79072, , , , ,48189,"241 W. Broadway, Plainview, TX 79072",34.1636756,-101.7523854
White Settlement Police Department,Local police department,34, , , , , ,8900 Clifford St., , ,White Settlement,TX,Tarrant,76108, , , , ,48439,"8900 Clifford St., White Settlement, TX 76108",32.7669312,-97.4719356
Gonzales Police Department,Local police department,34, , , , , ,P. O. Box 547,716 ST. PAUL, ,Gonzales,LA,Ascension,70737, , , , ,22005,"P. O. Box 547, Gonzales, LA 70737",30.2385294,-90.9200987
